    [
   
      {
        "name": "Elizur",
        "lat": "40.5864105224609",
        "lng": "-80.0372009277343",
        "category": "PA",
        "address": "9800A McKnight Road",
        "city": "Pittsburgh",
        "state": "Pennsylvania",
        "postal": "15237",
        "phone": "877-354-9870",
        "featured": "15237",
        "features": "Beth Logan"
      },
      {
        "name": "VAMC Cleveland-Wade Park Campus",
        "lat": "41.5126582235097",
        "lng": "-81.6131971031427",
        "category": "OH",
        "address": "10701 East Boulevard",
        "city": "Cleveland",
        "state": "Ohio",
        "postal": "44106",
        "phone": "216-791-3800",
        "featured": "44106",
        "features": "Christopher Woods"
      },
      {
        "name": "VAMC Cleveland-Akron CBOC",

        "lat": "41.0291404724121",
        "lng": "-81.5289001464843",
        "category": "OH",
        "address": "55 W. Waterloo",
        "city": "Akron",
        "state": "Oho",
        "postal": "44319",
        "phone": "330-724-7715",
        "featured": "44319"
      },
      {
        "name": "VAMC Cleveland-Mansfield CBOC",
        "lat": "40.7298997789621",
        "lng": "-82.5509979575872",
        "category": "OH",
        "address": "1025 South Trimble Rd.",
        "city": "Mansfield",
        "state": "Ohio",
        "postal": "44906",
        "phone": "419-529-4602",
        "featured": "44906"
      },
      {
        "name": "VAMC Cleveland-Youngstown CBOC",
        "lat": "41.1272811889648",
        "lng": "-80.6629943847656",
        "category": "OH",
        "address": "2031 Belmont Avenue",
        "city": "Youngstown",
        "state": "Ohio",
        "postal": "44505",
        "phone": "330-740-9200",
        "featured": "44505"
      },
      {
        "name": "Capital Prosthetic and Orthotic Center",
        "lat": "40.0530315935611",
        "lng": "-83.0622451007366",
        "category": "OH",
        "address": "4678 Larwell Drive ",
        "city": "Columbus",
        "state": "Ohio",
        "postal": "43220",
        "phone": "614-451-0446",
        "featured": "43220",
        "features": "Dave Kozersky"
      },
      {
        "name": "Capital Prosthetic and Orthotic Center",
        "lat": "40.3967104107141",
        "lng": "-82.4497559666633",
        "category": "OH",
        "address": "1375 Yauger Road, Ste. C ",
        "city": "Mount Vernon",
        "state": "Ohio",
        "postal": "43050",
        "phone": "740-397-8188",
        "featured": "43050",
        "features": "Dave Kozersky"
      },
      {
        "name": "Capital Prosthetic and Orthotic Center",
        "lat": "40.0443038940429",
        "lng": "-82.4595260620117",
        "category": "OH",
        "address": "55 South Terrace Avenue",
        "city": "Newark",
        "state": "Ohio",
        "postal": "43055",
        "phone": "740-522-3331",
        "featured": "43055",
        "features": "Dave Kozersky"
      },
      {
        "name": "Capital Prosthetic and Orthotic Center",
        "lat": "35.9319354593753",
        "lng": "-86.5311775356531",
        "category": "TN",
        "address": "1076 Courier Place, #501 ",
        "city": "Smyrna",
        "state": "Tennessee",
        "postal": "37167",
        "phone": "615-534-2454",
        "featured": "37167",
        "features": "Dave Kozersky"
      },
      {
        "name": "Capital Prosthetic and Orthotic Center",
        "lat": "39.985595",
        "lng": "-82.028948",
        "category": "OH",
        "address": "1396 Brandywine Blvd. ",
        "city": "Zanesville",
        "state": "Ohio",
        "postal": "47301",
        "phone": "740-453-9545",
        "featured": "47301",
        "features": "Dave Kozersky"
      },
      {
        "name": "Ohio Orthopedics and Sports Medicine",
        "lat": "41.0606657713651",
        "lng": "-83.6171874403953",
        "category": "OH",
        "address": "1501 Bright Rd.",
        "city": "Findlay",
        "state": "Ohio",
        "postal": "45840",
        "phone": "419-424-0131",
        "featured": "45840",
        "features": "Josh Baker"
      },
      {
        "name": "Toledo Orthopedic Surgeons",
        "lat": "41.6737442016601",
        "lng": "-83.6718978881835",
        "category": "OH",
        "address": "2865 N Reynolds Rd",
        "city": "Toledo",
        "state": "Ohio",
        "postal": "43615",
        "phone": "419-578-7200",
        "featured": "43615",
        "features": "Chandler Hoffman "
      },
      {
        "name": "Northcoast Orthopedic Sales",
        "lat": "41.2092819213867",
        "lng": "-81.4368591308593",
        "category": "OH",
        "address": "1521 Georgetown Rd. ",
        "city": "Hudson",
        "state": "Ohio",
        "postal": "44236",
        "phone": "330-650-2022",
        "featured": "44236",
        "features": "Dave Farrell"
      },
      {
        "name": "Omni Orthopedics",
        "lat": "40.8519401550292",
        "lng": "-81.4380187988281",
        "category": "OH",
        "address": "4760 Belpar St NW",
        "city": "Canton",
        "state": "Ohio",
        "postal": "44718",
        "phone": "330-492-9200",
        "featured": "44718",
        "features": "Nick Corati"
      },
      {
        "name": "Southwest Orthopaedics, Inc. ",
        "lat": "41.381469",
        "lng": "-81.72673",
        "category": "OH",
        "address": "6115 Powers Blvd",
        "city": "Cleveland",
        "state": "Ohio",
        "postal": "44129",
        "phone": "440-842-1570",
        "featured": "44129",
        "features": "Bev Campo"
      },
      {
        "name": "Orthopedic Institute of Ohio",
        "lat": "40.6974029541015",
        "lng": "-84.0876083374023",
        "category": "OH",
        "address": "801 Medical Drive - Suite A",
        "city": "Lima",
        "state": "Ohio",
        "postal": "45804",
        "phone": "419-222-6622",
        "featured": "45804",
        "features": "Amy Eddington"
      },
      {
        "name": "Orthopedic One",
        "lat": "39.9826470762491",
        "lng": "-82.843233346939",
        "category": "OH",
        "address": "170 Taylor Station Rd",
        "city": "Columbus",
        "state": "Ohio",
        "postal": "43213",
        "phone": "614-545-7900",
        "featured": "43213",
        "features": "Rylan Coddington "
      },
      {
        "name": "Orthopedic One",
        "lat": "40.0622444152832",
        "lng": "-83.0946731567382",
        "category": "OH",
        "address": "4605 Sawmill Road",
        "city": "Columbus",
        "state": "Ohio",
        "postal": "43220",
        "phone": "614-827-8700",
        "featured": "43220",
        "features": "Rylan Coddington "
      },
      {
        "name": "Yanke Bionics ",
        "lat": "41.0813636779785",
        "lng": "-81.5305862426757",
        "category": "OH",
        "address": "303 W Exchange St",
        "city": "Akron",
        "state": "Ohio",
        "postal": "44302",
        "phone": "330-762-6411",
        "featured": "44302",
        "features": "Roger Marzano"
      },
      {
        "name": "Yanke Bionics ",
        "lat": "40.9026374816894",
        "lng": "-81.1527023315429",
        "category": "OH",
        "address": "2461 W. State",
        "city": "Alliance",
        "state": "Ohio",
        "postal": "44601",
        "phone": "330-821-8700",
        "featured": "44601"
      },
      {
        "name": "Yanke Bionics ",
        "lat": "40.0557392835617",
        "lng": "-81.5498560667037",
        "category": "OH",
        "address": "10187 Cadiz Rd.",
        "city": "Cambridge ",
        "state": "Ohio",
        "postal": "43725",
        "phone": "740-439-2233",
        "featured": "43725"
      },
      {
        "name": "Yanke Bionics ",
        "lat": "40.7952041625976",
        "lng": "-81.4312362670898",
        "category": "OH",
        "address": "4604 W. Tuscarawas",
        "city": "Canton ",
        "state": "Ohio",
        "postal": "44708",
        "phone": "330-479-9662",
        "featured": "44708"
      },
      {
        "name": "Yanke Bionics ",
        "lat": "41.1560173034667",
        "lng": "-81.3213577270507",
        "category": "OH",
        "address": "2007 State Route 59",
        "city": "Kent",
        "state": "Ohio",
        "postal": "44240",
        "phone": "330-673-1904",
        "featured": "44240"
      },
      {
        "name": "Yanke Bionics ",
        "lat": "40.7689552307128",
        "lng": "-82.5138473510742",
        "category": "OH",
        "address": "380 North Main St, Suite L101",
        "city": "Mansfield",
        "state": "Ohio",
        "postal": "44902",
        "phone": "419-529-2300",
        "featured": "44902"
      },
      {
        "name": "Yanke Bionics ",
        "lat": "40.8264656066894",
        "lng": "-81.5022583007812",
        "category": "OH",
        "address": "2400 Wales Ave. NW",
        "city": "Massillon",
        "state": "Ohio",
        "postal": "44646",
        "phone": "330-833-0955",
        "featured": "44646"
      },
      {
        "name": "Yanke Bionics ",
        "lat": "41.1407279968261",
        "lng": "-81.6530151367187",
        "category": "OH",
        "address": "3975 Embassy Pkwy",
        "city": "Akron ",
        "state": "Ohio",
        "postal": "44333",
        "phone": "330-668-4070",
        "featured": "44333"
      },
      {
        "name": "Yanke Bionics ",
        "lat": "40.4620628356933",
        "lng": "-81.4079971313476",
        "category": "OH",
        "address": "2300 E. High Street",
        "city": "New Philadelphia",
        "state": "Ohio",
        "postal": "44663",
        "phone": "330-339-7900",
        "featured": "44663"
      },
      {
        "name": "Yanke Bionics ",
        "lat": "41.268413",
        "lng": "-82.608627",
        "category": "OH",
        "address": "10 Stower Lane",
        "city": "Norwalk",
        "state": "Ohio",
        "postal": "44857",
        "phone": "419-660-0030",
        "featured": "44857"
      },
      {
        "name": "Yanke Bionics ",
        "lat": "41.418891",
        "lng": "-81.69593",
        "category": "OH",
        "address": "2119 Brookpark Rd",
        "city": "Parma",
        "state": "Ohio",
        "postal": "44134",
        "phone": "216-741-4112",
        "featured": "44134"
      },
      {
        "name": "Yanke Bionics ",
        "lat": "41.4503746032714",
        "lng": "-81.5366287231445",
        "category": "OH",
        "address": "4010 Warrensville Center Rd.",
        "city": "Warrensville Heights",
        "state": "Ohio",
        "postal": "44122",
        "phone": "216-751-8000",
        "featured": "44122"
      },
      {
        "name": "Yanke Bionics ",
        "lat": "40.8350276201963",
        "lng": "-81.9294188171625",
        "category": "OH",
        "address": "2922 Cleveland Rd.",
        "city": "Wooster",
        "state": "Ohio",
        "postal": "44691",
        "phone": "330-345-6657",
        "featured": "44691"
      },
      {
        "name": "Yanke Bionics ",
        "lat": "39.9716911315917",
        "lng": "-82.0126571655273",
        "category": "OH",
        "address": "750 Princeton Ave. Suite 2",
        "city": "Zanesville",
        "state": "Ohio",
        "postal": "43701",
        "phone": "740-450-8600",
        "featured": "43701"
      },
      {
        "name": "The Pharmacy Counter LLC/W Central ",
        "lat": "41.67649",
        "lng": "-83.607238",
        "category": "OH",
        "address": "2655 W. Central Ave.",
        "city": "Toledo",
        "state": "Ohio",
        "postal": "43606",
        "phone": "419-473-1493",
        "featured": "43606",
        "features": "Jeff Wurch"
      },
      {
        "name": "The Pharmacy Counter - Byrne",
        "lat": "41.6115951538085",
        "lng": "-83.6248397827148",
        "category": "OH",
        "address": "1515 S. Byrne Road",
        "city": "Toledo",
        "state": "Ohio",
        "postal": "43614",
        "phone": "419-382-3475",
        "featured": "43614"
      },
      {
        "name": "The Pharmacy Counter - Navarre",
        "lat": "41.6376876831054",
        "lng": "-83.4840087890625",
        "category": "OH",
        "address": "2701 Navarre Ave.",
        "city": "Oregon",
        "state": "Ohio",
        "postal": "43616",
        "phone": "419-698-5408",
        "featured": "43616"
      },
      {
        "name": "The Pharmacy Counter - Navarre",
        "lat": "41.6777984797954",
        "lng": "-83.5947675257921",
        "category": "OH",
        "address": "2100 W. Central Ave",
        "city": "Toledo",
        "state": "Ohio",
        "postal": "43606",
        "phone": "419-291-4466",
        "featured": "43606"
      },
      {
        "name": "Tim Nice, MD",
        "lat": "41.586814880371",
        "lng": "-81.4407882690429",
        "category": "OH",
        "address": "34600 Chardon Rd, ",
        "city": "Willoughby Hills",
        "state": "Ohio",
        "postal": "44094",
        "phone": "440-585-5258",
        "featured": "44094",
        "features": "Dr. Tim Nice"
      },
      {
        "name": "Pennsylvania Art. Limb & Brace",
        "lat": "42.073146",
        "lng": "-80.093925",
        "category": "PA",
        "address": "5530 Peach St",
        "city": "Erie",
        "state": "Pennsylvania",
        "postal": "16059",
        "phone": "814-868-5231",
        "featured": "16059",
        "features": "Steve Svetz"
      },
      {
        "name": "Pennsylvania Art. Limb & Brace",
        "lat": "41.4110145568847",
        "lng": "-80.3716125488281",
        "category": "PA",
        "address": "111 N Main St",
        "city": "Greenville",
        "state": "Pennsylvania",
        "postal": "16125",
        "phone": "814-868-5231",
        "featured": "16125"
      },
      {
        "name": "Pennsylvania Art. Limb & Brace",
        "lat": "41.837532043457",
        "lng": "-80.8525238037109",
        "category": "OH",
        "address": "4859 N Ridge W",
        "city": "Ashtabula",
        "state": "Ohio",
        "postal": "44004",
        "phone": "814-868-5231",
        "featured": "44004"
      },
      {
        "name": "National Rehab ",
        "lat": "40.4984533041715",
        "lng": "-80.2171187102794",
        "category": "PA",
        "address": "540 Lindbergh Drive",
        "city": "Moon Twp.",
        "state": "Pennsylvania",
        "postal": "15108",
        "phone": "800-451-6510",
        "featured": "15108",
        "features": "Aaron Best"
      },
      {
        "name": "National Rehab ",
        "lat": "40.434777662158",
        "lng": "-79.9554242938756",
        "category": "PA",
        "address": "3524 Blvd of the Allies",
        "city": "Pittsburgh",
        "state": "Pennsylvania",
        "postal": "15213",
        "phone": "800-451-6510",
        "featured": "15213",
        "features": "Aaron Best"
      },
      {
        "name": "National Rehab ",
        "lat": "40.6858406066894",
        "lng": "-80.075927734375",
        "category": "PA",
        "address": "1659 Route 228",
        "city": "Cranberry ",
        "state": "Pennsylvania",
        "postal": "16066",
        "phone": "800-451-6510",
        "featured": "16066",
        "features": "Aaron Best"
      },
      {
        "name": "National Rehab ",
        "lat": "40.3293113708496",
        "lng": "-79.9398498535156",
        "category": "PA",
        "address": "500 N Lewis Run Road STE 104",
        "city": "Pittsburgh",
        "state": "Pennsylvania",
        "postal": "15122",
        "phone": "800-451-6510",
        "featured": "15122",
        "features": "Aaron Best"
      },
      {
        "name": "National Rehab ",
        "lat": "42.0708252489566",
        "lng": "-80.0946000963449",
        "category": "PA",
        "address": "14 Millcreek Square",
        "city": "Erie",
        "state": "Pennsylvania",
        "postal": "16565",
        "phone": "800-451-6510",
        "featured": "16565",
        "features": "Aaron Best"
      },
      {
        "name": "National Rehab ",
        "lat": "40.1561417430639",
        "lng": "-80.2820248156785",
        "category": "PA",
        "address": "125 N Franklin Dr",
        "city": "Washington",
        "state": "Pennsylvania",
        "postal": "15301",
        "phone": "800-451-6510",
        "featured": "15301",
        "features": "Aaron Best"
      },
      {
        "name": "National Rehab ",
        "lat": "40.8592071533203",
        "lng": "-79.9732055664062",
        "category": "PA",
        "address": "602 Evans City Rd",
        "city": "Butler",
        "state": "Pennsylvania",
        "postal": "16001",
        "phone": "800-451-6510",
        "featured": "16001",
        "features": "Aaron Best"
      },
      {
        "name": "National Rehab ",
        "lat": "40.8128395080566",
        "lng": "-79.5486526489257",
        "category": "PA",
        "address": "Franklin Village Mall",
        "city": "Kittanning",
        "state": "Pennsylvania",
        "postal": "16201",
        "phone": "800-451-6510",
        "featured": "16201",
        "features": "Aaron Best"
      },
      {
        "name": "First Settlement Physical Therapy",
        "lat": "39.3141136169433",
        "lng": "-81.5528564453125",
        "category": "WV",
        "address": "1500 Grand Central Ave #101",
        "city": "Vienna",
        "state": "West Virginia",
        "postal": "26105",
        "phone": "304-295-3060",
        "featured": "26105",
        "features": "Neely Stealy"
      },
      {
        "name": "First Settlement Physical Therapy",
        "lat": "39.3377075195312",
        "lng": "-82.066047668457",
        "category": "OH",
        "address": "932 E State St, Ste 102",
        "city": "Athens",
        "state": "Ohio",
        "postal": "45701",
        "phone": "740-592-3778",
        "featured": "45701"
      },
      {
        "name": "First Settlement Physical Therapy",
        "lat": "39.3959346413612",
        "lng": "-81.6684606671333",
        "category": "OH",
        "address": "55 White Oak Woods Dr.",
        "city": "Vincent",
        "state": "Ohio",
        "postal": "45784",
        "phone": "740-678-8000",
        "featured": "45784"
      },
      {
        "name": "First Settlement Physical Therapy",
        "lat": "39.2829150706529",
        "lng": "-81.6109460592269",
        "category": "OH",
        "address": "809 Farson St., Suite 105",
        "city": "Belpre",
        "state": "Ohio",
        "postal": "45714",
        "phone": "740-423-1500",
        "featured": "45714"
      },
      {
        "name": "First Settlement Physical Therapy",
        "lat": "40.0269196182489",
        "lng": "-81.5748669952154",
        "category": "OH",
        "address": "1445 East Wheeling Ave",
        "city": "Cambridge ",
        "state": "Ohio",
        "postal": "43725",
        "phone": "740-432-0130",
        "featured": "43725"
      },
      {
        "name": "First Settlement Physical Therapy",
        "lat": "39.4219322204589",
        "lng": "-81.4618530273437",
        "category": "OH",
        "address": "611 Second St., Suite A",
        "city": "Marietta",
        "state": "Ohio",
        "postal": "45750",
        "phone": "740-568-0650",
        "featured": "45750"
      },
      {
        "name": "First Settlement Physical Therapy",
        "lat": "39.2740993201732",
        "lng": "-82.4736899882555",
        "category": "OH",
        "address": "31055 Industrial Park Dr.",
        "city": "McArthur",
        "state": "Ohio",
        "postal": "45651",
        "phone": "740-596-0123",
        "featured": "45651"
      },
      {
        "name": "First Settlement Physical Therapy",
        "lat": "39.6487824618816",
        "lng": "-81.8523804098367",
        "category": "OH",
        "address": "61 E. Main St.",
        "city": "McConnelsville",
        "state": "Ohio",
        "postal": "43756",
        "phone": "740-962-4441",
        "featured": "43756"
      },
      {
        "name": "First Settlement Physical Therapy",
        "lat": "39.7231943160295",
        "lng": "-82.205021828413",
        "category": "OH",
        "address": "775 Carroll St.",
        "city": "New Lexington ",
        "state": "Ohio",
        "postal": "43764",
        "phone": "740-343-0341",
        "featured": "43764"
      },
      {
        "name": "First Settlement Physical Therapy",
        "lat": "38.3694646507501",
        "lng": "-81.6969168931245",
        "category": "WV",
        "address": "313 MacCorkle Ave SW",
        "city": "South Charleston",
        "state": "West Virginia",
        "postal": "25303",
        "phone": "304-746-3704",
        "featured": "25303"
      },
      {
        "name": "First Settlement Physical Therapy",
        "lat": "39.2193735390901",
        "lng": "-81.5460003912448",
        "category": "WV",
        "address": "2837 Pike St., Suite 3",
        "city": "Parkersburg",
        "state": "West Virginia",
        "postal": "26101",
        "phone": "304-489-2230",
        "featured": "26101"
      },
      {
        "name": "First Settlement Physical Therapy",
        "lat": "39.3141136169433",
        "lng": "-81.5528564453125",
        "category": "WV",
        "address": "1500 Grand Central Ave., Suite 101",
        "city": "Vienna",
        "state": "West Virginia",
        "postal": "26105",
        "phone": "304-295-3060",
        "featured": "26105"
      },
      {
        "name": "First Settlement Physical Therapy",
        "lat": "39.3993682861328",
        "lng": "-81.4481353759765",
        "category": "WV",
        "address": "601 Highland Ave.",
        "city": "Williamstown",
        "state": "West Virginia",
        "postal": "26187",
        "phone": "304-375-2990",
        "featured": "26187"
      },
      {
        "name": "S Baker Medical Center",
        "lat": "30.6903114318847",
        "lng": "-88.1238174438476",
        "category": "AL",
        "address": "3280 Dauphin St",
        "city": "Mobile",
        "state": "Alabama",
        "postal": "36606",
        "phone": "251-478-9697",
        "web": "http://www.sbakermedical.com/",
        "featured": "36606"
      },
      {
        "name": "Rehab And Neurological Svcs",
        "lat": "34.7124977111816",
        "lng": "-86.6095886230468",
        "category": "AL",
        "address": "2700 Triana Blvd SW",
        "city": "Huntsville",
        "state": "Alabama",
        "postal": "35805",
        "phone": "256-885-9708",
        "web": "http://www.rehabneuro.us/",
        "featured": "35805"
      },
      {
        "name": "North Alabama Rehab and Pain",
        "lat": "34.5604515075683",
        "lng": "-86.9953918457031",
        "category": "AL",
        "address": "2046 Beltline Rd",
        "city": "Decatur",
        "state": "Alabama",
        "postal": "35601",
        "phone": "256-353-0410",
        "web": "http://www.naraps.com/",
        "featured": "35601"
      },
      {
        "name": "Biotech Central Fab ",
        "lat": "33.51181",
        "lng": "-86.795532",
        "category": "AL",
        "address": "2421 4TH AVE S",
        "city": "Birmingham",
        "state": "Alabama",
        "postal": "35233",
        "phone": "205-324-7897",
        "featured": "35233"
      },
      {
        "name": "Precison  Medical Solutions",
        "lat": "32.3804875463247",
        "lng": "-86.1883100867271",
        "category": "AL",
        "address": "119 Market Pl",
        "city": "Montgomery",
        "state": "Alabama",
        "postal": "36117",
        "phone": "334-260-3767",
        "web": "www.precisionmedicalsolutions.com/",
        "featured": "36117"
      },
      {
        "name": "Performance Prosthetics and Orthotics",
        "lat": "30.4369792938232",
        "lng": "-87.2099075317382",
        "category": "FL",
        "address": "2280 N 9th Ave",
        "city": "Pensacola",
        "state": "Florida",
        "postal": "32503",
        "phone": "850-607 - 6126",
        "web": "http://www.performancepo.com/",
        "featured": "32503"
      },
      {
        "name": "Equipped for Life – Greenville Health System",
        "lat": "34.8142147064208",
        "lng": "-82.4178886413574",
        "category": "SC",
        "address": "1009 Grove Rd. Building C",
        "city": "Greenville",
        "state": "South Carolina",
        "postal": "29605",
        "phone": "864-255-9300",
        "featured": "29605"
      },
      {
        "name": "Medica A Div of Medequip",
        "lat": "34.862205505371",
        "lng": "-82.220359802246",
        "category": "SC",
        "address": "2755 South Hwy 14",
        "city": "Greer",
        "state": "South Carolina",
        "postal": "29650",
        "phone": "864-849-9144        ",
        "web": "cover all of NC and SC",
        "featured": "29650"
      },
      {
        "name": "Southeastern Health Plus",
        "lat": "33.7335580587387",
        "lng": "-78.86000610888",
        "category": "SC",
        "address": "1301 48th Avenue North, Suite C",
        "city": "Myrtle Beach",
        "state": "South Carolina",
        "postal": "29577",
        "phone": "843-839-1374",
        "featured": "29577"
      },
      {
        "name": "Orthopedic Institute of Ohio",
        "lat": "34.819263",
        "lng": "-82.410697",
        "category": "SC",
        "address": "701 Grove Road",
        "city": "Greenville",
        "state": "South Carolina",
        "postal": "29605",
        "phone": "877-447-4636",
        "featured": "29605"
      },
      {
        "name": "McCain Orthopaedic Center ",
        "lat": "34.00798",
        "lng": "-81.02494",
        "category": "SC",
        "address": "1812 Hampton St.",
        "city": "Columbia",
        "state": "South Carolina",
        "postal": "29201",
        "phone": "803-254-8800",
        "featured": "29201"
      },
      {
        "name": "Reliable Medical Equipment ",
        "lat": "33.935649",
        "lng": "-80.358123",
        "address": "418 Broad St",
        "city": "Sumter",
        "state": "South CarolinaSC",
        "postal": "29150",
        "phone": "803-934-9212",
        "featured": "29150"
      },
      {
        "name": "Floyd Brace Co. Inc ",
        "lat": "32.975215",
        "lng": "-80.071144",
        "category": "SC",
        "address": "9231 Medical Plaza Dr",
        "city": "North Charleston",
        "state": "South Carolina",
        "postal": "29406",
        "phone": "843-573-9430",
        "featured": "29406"
      },
      {
        "name": "Floyd Brace Co. Inc ",
        "lat": "32.9126404970884",
        "lng": "-80.6698802858591",
        "category": "SC",
        "address": "138 Bells Hwy",
        "city": "Walterboro",
        "state": "South Carolina",
        "postal": "29488",
        "phone": "843-782-3638",
        "featured": "29488"
      },
      {
        "name": "Floyd Brace Co. Inc ",
        "lat": "33.367767",
        "lng": "-79.275527",
        "category": "SC",
        "address": "407 Church St",
        "city": "Georgetown",
        "state": "South Carolina",
        "postal": "29440",
        "phone": "843-546-8555",
        "featured": "29440"
      },
      {
        "name": "Floyd Brace Co. Inc ",
        "lat": "33.5627777874469",
        "lng": "-79.0386774390935",
        "category": "SC",
        "address": "3944 U.S. 17",
        "city": "Murrells Inlet",
        "state": "South Carolina",
        "postal": "29576",
        "phone": "843-299-0566",
        "featured": "29576"
      },
      {
        "name": "DR Medical LLC",
        "lat": "41.944455",
        "lng": "-71.282094",
        "category": "MA",
        "address": "51",
        "city": "Attleboro",
        "state": "Massachusettes",
        "postal": "2703",
        "phone": "508-222-1972",
        "featured": "2703"
      },
      {
        "name": "New England O & P Systems ",
        "lat": "41.2792412",
        "lng": "-72.8494738",
        "category": "CT",
        "address": "469 West Main Street, Suite 101",
        "city": "Branford",
        "state": "Connecticut",
        "postal": "6405",
        "phone": "203-488-8588",
        "featured": "06405"
      },
      {
        "name": "The Orthopaedic Specialty Group LLC",
        "lat": "41.3159925",
        "lng": "-72.9221623",
        "category": "CT",
        "address": "199 Whitney Avenue",
        "city": "New Haven ",
        "state": "Connecticut",
        "postal": "6511",
        "phone": "203-865-6784",
        "featured": "06511"
      },
      {
        "name": "Valley Orthopaedic",
        "lat": "41.4106282",
        "lng": "-73.0988051",
        "category": "CT",
        "address": "144 Oxford Rd",
        "city": "Oxford",
        "state": "Connecticut",
        "postal": "6478",
        "phone": "203-881-5261",
        "featured": "06478"
      },
      {
        "name": "Orthopedic Surgical Associates ",
        "lat": "42.6272039115428",
        "lng": "-71.3662587851285",
        "category": "MA",
        "address": "14 Research Pl",
        "city": "Chelmsford",
        "state": "Massachusettes",
        "postal": "1863",
        "phone": "978-454-0706",
        "featured": "01863"
      },
      {
        "name": "Synergy Medical Systems",
        "lat": "44.0389366149902",
        "lng": "-123.180381774902",
        "category": "OR",
        "address": "1710 Willow Creek Circle",
        "city": "Eugene",
        "state": "Oregon",
        "postal": "97402",
        "phone": "541-343-3758",
        "featured": "97402"
      },
      {
        "name": "Intermountain Orthopaedics",
        "lat": "48.0161701887845",
        "lng": "-122.687070742249",
        "category": "ID",
        "address": "600 Robbins Rd. #10",
        "city": "Boise",
        "state": "Idaho",
        "postal": "83702",
        "phone": "208-383-0201",
        "featured": "83702"
      },
      {
        "name": "Dynamic Bracing",
        "lat": "47.6512362062931",
        "lng": "-117.4096018821",
        "category": "WA",
        "address": "511 S Pine St.",
        "city": "Spokane",
        "state": "Washington",
        "postal": "99202",
        "phone": "509-325-9144",
        "featured": "99202"
      },
      {
        "name": "Cornerstone P&O",
        "lat": "47.9589080810546",
        "lng": "-122.211692810058",
        "category": "WA",
        "address": "1300 44th St. SE",
        "city": "Everett",
        "state": "Washington",
        "postal": "98203",
        "phone": "425.339.2559",
        "featured": "98203"
      },
      {
        "name": "Master's O&P",
        "lat": "48.0836067199707",
        "lng": "-123.114036560058",
        "category": "WA",
        "address": "530 W Fir St",
        "city": "Sequim",
        "state": "Washington",
        "postal": "98382",
        "phone": "360-683-8195",
        "featured": "98382"
      },
      {
        "name": " Cascade Orthopedics and Sports ",
        "lat": "45.5933265686035",
        "lng": "-121.16600036621",
        "category": "OR",
        "address": "1715 E 12th St.",
        "city": "The Dalles",
        "state": "Oregon",
        "postal": "97058",
        "phone": "541-296-2294",
        "featured": "97058"
      },
      {
        "name": "Adapt Prosthetics and Orthotics ",
        "lat": "47.6966400146484",
        "lng": "-116.798019409179",
        "category": "ID",
        "address": "2204 Ironwood Pl",
        "city": "Coeur d'Alene",
        "state": "Idaho",
        "postal": "83814",
        "phone": "208-765-0597",
        "featured": "83814"
      },
      {
        "name": "Northern Orthopedics ",
        "lat": "61.1897277832031",
        "lng": "-149.859451293945",
        "category": "AK",
        "address": "3400 Latouche St #101",
        "city": "Anchrage",
        "state": "Alaska",
        "postal": "99508",
        "phone": "907-561-1777",
        "featured": "99508"
      },
      {
        "name": "Lake Country Orthopaedics",
        "lat": "48.2834120839834",
        "lng": "-116.552795022726",
        "category": "ID",
        "address": "1005 U.S. 2",
        "city": "Sandpoint",
        "state": "Idaho",
        "postal": "83864",
        "phone": "208-265-5916",
        "featured": "83864"
      },
      {
        "name": "Center for Prosthetics Orthotics Inc.",
        "lat": "47.6055335998535",
        "lng": "-122.317176818847",
        "category": "WA",
        "address": "411 12th Ave #200",
        "city": "Seattle",
        "state": "Washington",
        "postal": "98122",
        "phone": "206-328-4276",
        "featured": "98122"
      },
      {
        "name": "Central Washington Hospital",
        "lat": "47.4064865112304",
        "lng": "-120.321083068847",
        "category": "WA",
        "address": "1201 S Miller St.",
        "city": "Wenatchee",
        "state": "Washington",
        "postal": "98801",
        "phone": "509-662-1511",
        "featured": "98801"
      },
      {
        "name": "Orthopro of Lewiston ",
        "lat": "46.4044036865234",
        "lng": "-117.020477294921",
        "category": "ID",
        "address": "823 16th Ave.",
        "city": "Lewiston",
        "state": "Idaho",
        "postal": "83501",
        "phone": "208-798-0200",
        "featured": "83501"
      },
      {
        "name": "Ted Burris & Associates Inc ",
        "lat": "47.5614318847656",
        "lng": "-122.037612915039",
        "category": "WA",
        "address": "4637 227th Pl SE",
        "city": "Sammamish ",
        "state": "Washington",
        "postal": "98075",
        "phone": "425-392-3920",
        "featured": "98075"
      },
      {
        "name": "Prime Medical Supply",
        "lat": "45.7512741088867",
        "lng": "-108.576843261718",
        "category": "MT",
        "address": "1040 S 24th St W",
        "city": "Billings",
        "state": "Montana",
        "postal": "59102",
        "phone": "406-252-7225",
        "featured": "59102"
      },
      {
        "name": "Kinetic Orthopedics",
        "lat": "47.6243095397949",
        "lng": "-117.36360168457",
        "category": "WA",
        "address": "3152 E 33rd Ave",
        "city": "Spokane",
        "state": "Washington",
        "postal": "99223",
        "phone": "0",
        "featured": "99223"
      },
      {
        "name": "Synergy Ortho",
        "lat": "40.124828338623",
        "lng": "-75.2924575805664",
        "category": "PA",
        "address": "2901 Jolly Rd",
        "city": "Plymouth Meeting",
        "state": "Pennsylvania",
        "postal": "19462",
        "phone": "610-292-8400",
        "web": "eastern pa and new jersey",
        "featured": "19462"
      },
      {
        "name": "Synergy Orthopedics ",
        "lat": "41.5544929504394",
        "lng": "-75.2498626708984",
        "category": "PA",
        "address": "232 Sunrise Ave.",
        "city": "Honesdale",
        "state": "Pennsylvania",
        "postal": "18431",
        "phone": "570-251-8520",
        "featured": "18431"
      },
      {
        "name": "Mountain Valley Orthopedic Group",
        "lat": "41.0327758789062",
        "lng": "-75.1962280273437",
        "category": "PA",
        "address": "447 Office Plaza 600 Plaza Ct.",
        "city": "East Stroudsburg",
        "state": "Pennsylvania",
        "postal": "18301",
        "phone": "570-421-7020",
        "featured": "18301"
      },
      {
        "name": "Body In Motion",
        "lat": "40.2328260987997",
        "lng": "-74.3192763626575",
        "category": "NJ",
        "address": "302 Professional View Drive",
        "city": "Freehold",
        "state": "New Jersey",
        "postal": "7728",
        "phone": "732-780-1122",
        "featured": "07728"
      },
      {
        "name": "Body In Motion",
        "lat": "40.2793651074171",
        "lng": "-73.9945567399263",
        "category": "NJ",
        "address": "766 Shrewsbury Avenue",
        "city": "Tinton Falls",
        "state": "New Jersey",
        "postal": "7724",
        "phone": "732-747-6669",
        "featured": "07724"
      },
      {
        "name": "Skylands Orthopedics",
        "lat": "40.8442291",
        "lng": "-74.8157842",
        "category": "NJ",
        "address": "57 U.S. 46 #107",
        "city": "Hackettstown",
        "state": "New Jersey",
        "postal": "7840",
        "phone": "908-813-9700",
        "featured": "07840"
      },
      {
        "name": "Armac",
        "lat": "40.7528281",
        "lng": "-74.3671198",
        "category": "NJ",
        "address": "71 Passaic Ave",
        "city": "Florham Park",
        "state": "New Jersey",
        "postal": "7932",
        "phone": "973-328-1760",
        "featured": "07932"
      },
      {
        "name": "Rothman Institute",
        "lat": "39.9499247968196",
        "lng": "-75.1559297740459",
        "category": "PA",
        "address": "925 Chestnut Street, 5th Floor",
        "city": "Philadelphia",
        "state": "Pennsylvania",
        "postal": "19146",
        "phone": "800-321-9999",
        "featured": "19146"
      },
      {
        "name": "Englewood Orthopedic Associates",
        "lat": "40.8838477",
        "lng": "-73.9868017",
        "category": "NJ",
        "address": "401 S Van Brunt St",
        "city": "Englewood",
        "state": "New Jersey",
        "postal": "7631",
        "phone": "201-569-2770",
        "featured": "07631"
      },
      {
        "name": "Allied O&P",
        "lat": "40.8652761",
        "lng": "-74.5844865",
        "category": "NJ",
        "address": "One Emery Ave., #4",
        "city": "Randolph",
        "state": "New Jersey",
        "postal": "7869",
        "phone": "973-328-3340",
        "featured": "07869"
      },
      {
        "name": "Allied O&P",
        "lat": "40.8330252",
        "lng": "-74.1826153",
        "category": "NJ",
        "address": "1255 Broad St., #206 ",
        "city": "Bloomfield",
        "state": "New Jersey",
        "postal": "7003",
        "phone": "973-320-4003 ",
        "featured": "07003"
      },
      {
        "name": "Allied O&P",
        "lat": "40.528757",
        "lng": "-74.8556947",
        "category": "NJ",
        "address": "6 Minneakoning Rd. 2nd floor",
        "city": "Flemington",
        "state": "New Jersey",
        "postal": "8822",
        "phone": "908-788-9159",
        "featured": "08822"
      },
      {
        "name": "Allied O&P",
        "lat": "39.9424427",
        "lng": "-74.9546072",
        "category": "NJ",
        "address": "813 Eastgate Dr., St. A ",
        "city": "Mt. Laurel",
        "state": "New Jersey",
        "postal": "8054",
        "phone": "856-273-6400",
        "featured": "08054"
      },
      {
        "name": "Allied O&P",
        "lat": "39.3854674",
        "lng": "-74.5569269",
        "category": "NJ",
        "address": "331 Tilton Road, #7",
        "city": "Northfield",
        "state": "New Jersey",
        "postal": "8225",
        "phone": "609-926-9077",
        "featured": "08225"
      },
      {
        "name": "Allied O&P",
        "lat": "39.7348046",
        "lng": "-75.0706661",
        "category": "NJ",
        "address": "444 Hurtville-Crosskeys Rd ",
        "city": "Sewell",
        "state": "New Jersey",
        "postal": "8080",
        "phone": "856-589-8669",
        "featured": "08080"
      },
      {
        "name": "Allied O&P",
        "lat": "40.3142503",
        "lng": "-74.0649022",
        "category": "NJ",
        "address": "1131 Broad St. #106",
        "city": "Shrewsbury",
        "state": "New Jersey",
        "postal": "7702",
        "phone": "732-542-8800",
        "featured": "07702"
      },
      {
        "name": "Allied O&P",
        "lat": "40.4588915",
        "lng": "74.4837479",
        "category": "NJ",
        "address": "1527 Rt. 27, Suite 2300",
        "city": "Somerset",
        "state": "New Jersey",
        "postal": "8225",
        "phone": "732-545-2885",
        "featured": "08225"
      },
      {
        "name": "Allied O&P",
        "lat": "39.9868152",
        "lng": "74.2603806",
        "category": "NJ",
        "address": "9 Hospital Drive, Suite A-5",
        "city": "Toms River",
        "state": "New Jersey",
        "postal": "8753",
        "phone": "732-341-9191",
        "featured": "08753"
      },
      {
        "name": "Allied O&P",
        "lat": "40.9537924826145",
        "lng": "-74.163029640913",
        "category": "NJ",
        "address": "579 Goffle Road",
        "city": "Wyckoff",
        "state": "New Jersey",
        "postal": "7481",
        "phone": "201-444-7750",
        "featured": "07481"
      },
      {
        "name": "Allied O&P",
        "lat": "40.562511",
        "lng": "-75.561813",
        "category": "PA",
        "address": "5374 Hamilton Blvd.",
        "city": "Allentown",
        "state": "Pennsylvania",
        "postal": "18104",
        "phone": "610-954-0180",
        "featured": "18104"
      },
      {
        "name": "Allied O&P",
        "lat": "40.6745897",
        "lng": "-75.3861761",
        "category": "PA",
        "address": "190 Brodhead Rd #215 ",
        "city": "Bethlehem",
        "state": "Pennsylvania",
        "postal": "18017",
        "phone": "610-954-0180",
        "featured": "18017"
      },
      {
        "name": "Allied O&P",
        "lat": "40.9949302673339",
        "lng": "-75.1692428588867",
        "category": "PA",
        "address": "300 E. Brown St.",
        "city": "East Stroudsburg",
        "state": "Pennsylvania",
        "postal": "18301",
        "phone": "570-420-9900",
        "featured": "18301"
      },
      {
        "name": "Allied O&P",
        "lat": "40.078093484044",
        "lng": "-75.1267091184854",
        "category": "PA",
        "address": "100 Yorktown Plaza",
        "city": "Elkins",
        "state": "Pennsylvania",
        "postal": "19027",
        "phone": "215-576-1888",
        "featured": "19027"
      },
      {
        "name": "Allied O&P",
        "lat": "41.2569503784179",
        "lng": "-75.8820877075195",
        "category": "NJ",
        "address": "540 Pierce Street",
        "city": "Kingston",
        "state": "New Jersey",
        "postal": "18704",
        "phone": "570-420-9900",
        "featured": "18704"
      },
      {
        "name": "Williams Orthotic Services",
        "lat": "42.9746131896972",
        "lng": "-83.7696456909179",
        "category": "MI",
        "address": "4466 W Bristol Rd",
        "city": "Flint",
        "state": "Michigan",
        "postal": "48507",
        "phone": "810-230-9400",
        "featured": "48507"
      },
      {
        "name": "Teter O & P",
        "lat": "44.7640152275562",
        "lng": "-85.6265576183795",
        "category": "MI",
        "address": "225 W Front St.",
        "city": "Traverse City",
        "state": "Michigan",
        "postal": "49684",
        "phone": "231-947-5701",
        "featured": "49684"
      },
      {
        "name": "Biodynamic Technologies",
        "lat": "40.768009185791",
        "lng": "-73.9537811279296",
        "category": "NY",
        "address": "431 East 73rd Street",
        "city": "New York ",
        "state": "New York",
        "postal": "10021",
        "phone": "212-879-3100",
        "featured": "10021",
        "features": "Pablo McKinney "
      },
      {
        "name": "Biodynamic Technologies",
        "lat": "40.846511",
        "lng": "-74.118156",
        "category": "NJ",
        "address": "1 Madison St., Building A",
        "city": "East Rutherford",
        "state": "New Jersey",
        "postal": "07073",
        "phone": "1-800-879-2276",
        "featured": "07073"
      },
      {
        "name": "Somers Orthopedic Surgery ",
        "lat": "41.3858487457036",
        "lng": "-73.6641823500394",
        "category": "NY",
        "address": "664 Stoneleigh Avenue",
        "city": "Carmel",
        "state": "New York",
        "postal": "10512",
        "phone": "845-278-8400",
        "featured": "10512",
        "features": "Sandy Harriman"
      },
      {
        "name": "Clinical Promotional Marketing",
        "lat": "40.7944602966308",
        "lng": "-73.621337890625",
        "category": "NY",
        "address": "14 Glen Cove Road # 103",
        "city": "Roslyn Heights",
        "state": "New York",
        "postal": "11577",
        "phone": " 516-621-7653",
        "featured": "11577"
      },
      {
        "name": "Eschen P&O Labs ",
        "lat": "40.8497734069824",
        "lng": "-73.8518295288085",
        "category": "NY",
        "address": "1120 Morris Park Avenue, Suite 1A",
        "city": "Bronx",
        "state": "New York",
        "postal": "10461",
        "phone": " 718-863-2277",
        "featured": "10461",
        "features": "Andy Meyers or Harry Watnick"
      },
      {
        "name": "Eschen P&O Labs ",
        "lat": "40.7768954336643",
        "lng": "-73.0988987535238",
        "category": "NY",
        "address": "161 Keyland Court",
        "city": "Bohemia",
        "state": "New York",
        "postal": "11716",
        "phone": "631-467-3725",
        "featured": "11716",
        "features": "Andy Meyers or Harry Watnick"
      },
      {
        "name": "Eschen P&O Labs ",
        "lat": "40.7650937139987",
        "lng": "-73.9535001665353",
        "category": "NY",
        "address": "535 East 70th St. Room 2w-159",
        "city": "New York ",
        "state": "New York",
        "postal": "10021",
        "phone": " 212-606-1262",
        "featured": "10021",
        "features": "Andy Meyers or Harry Watnick"
      },
      {
        "name": "Eschen P&O Labs ",
        "lat": "40.7623748779296",
        "lng": "-73.5446395874023",
        "category": "NY",
        "address": "299 Duffy Avenue, Suite B",
        "city": "Hicksville",
        "state": "New York",
        "postal": "11801",
        "phone": "516-933-9255",
        "featured": "11801",
        "features": "Andy Meyers or Harry Watnick"
      },
      {
        "name": "Eschen P&O Labs ",
        "lat": "40.7673561573028",
        "lng": "-73.9529348909854",
        "category": "NY",
        "address": "510 E. 73rd St. Suite 201A",
        "city": "New York ",
        "state": "New York",
        "postal": "10021",
        "phone": "212-606-1262",
        "featured": "10021",
        "features": "Andy Meyers or Harry Watnick"
      },
      {
        "name": "Eschen P&O Labs ",
        "lat": "41.0801647603511",
        "lng": "-74.0147329866886",
        "category": "NY",
        "address": "363 South Middletown Road",
        "city": "Nanuet",
        "state": "New York",
        "postal": "10954",
        "phone": "845-624-2400 ",
        "featured": "10954",
        "features": "Andy Meyers or Harry Watnick"
      },
      {
        "name": "Eschen P&O Labs ",
        "lat": "40.9135437011718",
        "lng": "-73.7860717773437",
        "category": "NY",
        "address": "175 Memorial Highway",
        "city": "New Rochelle",
        "state": "New York",
        "postal": "10801",
        "phone": "212-606-1262",
        "featured": "10801",
        "features": "Andy Meyers or Harry Watnick"
      },
      {
        "name": "Eschen P&O Labs ",
        "lat": "40.7833595275878",
        "lng": "-73.732421875",
        "category": "NY",
        "address": "98 Cuttermill Road, Suite 100",
        "city": "Great Neck",
        "state": "New York",
        "postal": "11021",
        "phone": "212-606-1262",
        "featured": "11021",
        "features": "Andy Meyers or Harry Watnick"
      },
      {
        "name": "N B B Orthotics, Inc.",
        "lat": "40.6364555358886",
        "lng": "-73.6397247314453",
        "category": "NY",
        "address": "3115 Long Beach Rd",
        "city": "Oceanside",
        "state": "New York",
        "postal": "11572",
        "phone": "516-594-9066",
        "featured": "11572",
        "features": "Neil Bergman"
      },
      {
        "name": "Charles Pfeiffer",
        "lat": "40.613559",
        "lng": "-74.122169",
        "category": "NY",
        "address": "1753 Victory Blvd",
        "city": "Staten Island",
        "state": "New York",
        "postal": "10314",
        "phone": "718-447-6629",
        "featured": "10314",
        "features": "Ed Salley"
      },
      {
        "name": " United Orthopaedic Appliances",
        "lat": "40.7352876663208",
        "lng": "-73.9827349036931",
        "category": "NY",
        "address": "326 2nd Ave",
        "city": "New York ",
        "state": "New York",
        "postal": "10003",
        "phone": "212-674-2366",
        "featured": "10003",
        "features": "Mike Lukasik"
      },
      {
        "name": "Complete Orthopedic Supplies",
        "lat": "40.7244071960449",
        "lng": "-73.5590209960937",
        "category": "NY",
        "address": "2094 Front St.",
        "city": "East Meadow",
        "state": "New York",
        "postal": "11554",
        "phone": "516-357-9113",
        "featured": "11554",
        "features": "Dale Harrynarine"
      },
      {
        "name": " Downtown Sports Therapy",
        "lat": "40.7107505798339",
        "lng": "-74.0063171386718",
        "category": "NY",
        "address": "19 Beekman St #1B,2B",
        "city": "New York ",
        "state": "New York",
        "postal": "10038",
        "phone": "212-964-3334",
        "featured": "10038",
        "features": "Steve Saccoliti"
      },
      {
        "name": "Park Nicollet ",
        "lat": "44.933780670166",
        "lng": "-93.346092224121",
        "category": "MN",
        "address": "3800 Park Nicollet Blvd ",
        "city": "Minneapolis",
        "state": "Minnesota",
        "postal": "55416",
        "phone": "952-993-5934",
        "featured": "55416"
      },
      {
        "name": "Rebound O&P",
        "lat": "45.1931586116552",
        "lng": "-93.8713308423757",
        "category": "MN",
        "address": "300 Catlin St.",
        "city": "Buffalo",
        "state": "Minnesota",
        "postal": "55313",
        "phone": "763-684-1010",
        "featured": "55313"
      },
      {
        "name": "Rebound O&P",
        "lat": "44.858959197998",
        "lng": "-94.3755722045898",
        "category": "MN",
        "address": "1073 Highway 15 South - Plaza 15",
        "city": "Hutchinson",
        "state": "Minnesota",
        "postal": "55350",
        "phone": "320-587-4144",
        "featured": "55350"
      },
      {
        "name": "Rebound O&P",
        "lat": "44.8423614501953",
        "lng": "-93.7977828979492",
        "category": "MN",
        "address": "584 S. Cherry Dr.",
        "city": "Waconia",
        "state": "Minnesota",
        "postal": "55387",
        "phone": " 952-442-3233",
        "featured": "55387"
      },
      {
        "name": "Limb Lab",
        "lat": "44.006591796875",
        "lng": "-92.4633331298828",
        "category": "MN",
        "address": "400 South Broadway, Suite 106 ",
        "city": "Rochester",
        "state": "Minnesota",
        "postal": "55904",
        "phone": "507-322-3457",
        "featured": "55904"
      },
      {
        "name": "Limb Lab",
        "lat": "44.1689224243164",
        "lng": "-93.9717941284179",
        "category": "MN",
        "address": "1400 Madison Ave Ste 212",
        "city": "Mnakato",
        "state": "Minnesota",
        "postal": "56001",
        "phone": "507-779-7117",
        "featured": "56001"
      },
      {
        "name": "Clark & Associates",
        "lat": "42.4642906188964",
        "lng": "-92.3507614135742",
        "category": "IA",
        "address": "527 Park Lane",
        "city": "Waterloo",
        "state": "Iowa",
        "postal": "50702",
        "phone": "319-233-8911",
        "featured": "50702"
      },
      {
        "name": "Clark & Associates",
        "lat": "41.9832496643066",
        "lng": "-91.6574172973632",
        "category": "IA",
        "address": "202 10th St SE, Suite 160",
        "city": "Cedar Rapids",
        "state": "Iowa",
        "postal": "52403",
        "phone": " 319-294-5982",
        "featured": "52403"
      },
      {
        "name": "Clark & Associates",
        "lat": "43.14529",
        "lng": "-93.209465",
        "category": "IA",
        "address": "646 South Monroe Ave.",
        "city": "Mason City",
        "state": "Iowa",
        "postal": "50401",
        "phone": "641-422-1423",
        "featured": "50401"
      },
      {
        "name": "Clark & Associates",
        "lat": "42.498756",
        "lng": "-90.739219",
        "category": "IA",
        "address": "1635 Associates Dr. - Suite 104",
        "city": "Dubuque",
        "state": "Iowa",
        "postal": "52002",
        "phone": "563-556-5415",
        "featured": "52002"
      },
      {
        "name": "Clark & Associates",
        "lat": "42.0250091552734",
        "lng": "-92.911750793457",
        "category": "IA",
        "address": "1910 S. Center Street",
        "city": "Marshalltown",
        "state": "Iowa",
        "postal": "50158",
        "phone": "641-753-0067",
        "featured": "50158"
      },
      {
        "name": "VAMC St. Cloud ",
        "lat": "45.5727081298828",
        "lng": "-94.2150497436523",
        "category": "MN",
        "address": "4801 Veterans Dr",
        "city": "St. Cloud",
        "state": "Minnesota",
        "postal": "56303",
        "phone": "320-252-1670",
        "featured": "56303"
      },
      {
        "name": "Prosthetic Labs of Rochester",
        "lat": "44.0225296020507",
        "lng": "-92.5000915527343",
        "category": "MN",
        "address": "121 23rd Ave SW",
        "city": "Rochester",
        "state": "Minnesota",
        "postal": "55902",
        "phone": " 507-281-5250",
        "featured": "55902"
      },
      {
        "name": "Prosthetic Labs of Rochester-Sanford Bemidji Medical Center ",
        "lat": "47.5032424",
        "lng": "-94.9019327",
        "category": "MN",
        "address": "1300 Anne Street ",
        "city": "Bemidji",
        "state": "Minnesota",
        "postal": "56601",
        "phone": "218-825-7255",
        "featured": "56601"
      },
      {
        "name": "Prosthetic Labs of Rochester",
        "lat": "47.5056441",
        "lng": "-94.8921238",
        "category": "MN",
        "address": "3835 Supreme Ct NW, Suite 4 ",
        "city": "Bemidji",
        "state": "Minnesota",
        "postal": "56601",
        "phone": "218-825-7255",
        "featured": "56601"
      },
      {
        "name": "Prosthetic Labs of Rochester",
        "lat": "46.357992",
        "lng": "-94.2427527",
        "category": "MN",
        "address": "7676 Design Road, Suite 300 ",
        "city": "Baxter",
        "state": "Minnesota",
        "postal": "56425 ",
        "phone": " 218-825-7255",
        "featured": "56425 "
      },
      {
        "name": "Prosthetic Labs of Rochester",
        "lat": "44.8150085",
        "lng": "-91.5128337",
        "category": "WI",
        "address": "221 W. Madison Street, Suite ",
        "city": "Eau Claire",
        "state": "Wisconsin",
        "postal": "54703",
        "phone": "715-830-1814",
        "featured": "54703"
      },
      {
        "name": "Prosthetic Labs of Rochester",
        "lat": "43.7743072509765",
        "lng": "-91.2227554321289",
        "category": "WI",
        "address": "3440 Losey Blvd. S.",
        "city": "La Crosse",
        "state": "Wisconsin",
        "postal": "54601",
        "phone": " 608-782-5070",
        "featured": "54601"
      },
      {
        "name": "Prosthetic Labs of Rochester",
        "lat": "43.0455842614173",
        "lng": "-89.3250227719545",
        "category": "WI",
        "address": "514 River Place",
        "city": "Monona",
        "state": "Wisconsin",
        "postal": "53716",
        "phone": "608-268-5101",
        "featured": "53716"
      },
      {
        "name": "Prosthetic Labs of Rochester",
        "lat": "44.1680978",
        "lng": "-93.9729004",
        "category": "WI",
        "address": "1400 Madison Ave, Madison East Center Suite 330",
        "city": "Mankato",
        "state": "Wisconsin",
        "postal": "56001",
        "phone": " 507-625-2941",
        "featured": "56001"
      },
      {
        "name": "Specialized Orthopedic Services, Inc.",
        "lat": "38.8977088928222",
        "lng": "-77.2716445922851",
        "category": "VA",
        "address": "307 Maple Ave W",
        "city": "Vienna",
        "state": "Virginia",
        "postal": "22180",
        "phone": "703-281-1200",
        "featured": "22180"
      },
      {
        "name": " A and G Spinal Solutions LLC ",
        "lat": "37.293525",
        "lng": "-80.051216",
        "category": "VA",
        "city": "Richmond ",
        "state": "Virginia",
        "postal": "23059",
        "phone": "239-985-4138",
        "featured": "23059"
      },
      {
        "name": "R & B Medical Inc. ",
        "lat": "39.6535186767578",
        "lng": "-79.9367446899414",
        "category": "WV",
        "address": "7000 Hampton Center, Suite G",
        "city": "Morgantown",
        "state": "West Virginia",
        "postal": "26505",
        "phone": "304-598-0416",
        "featured": "26505"
      },
      {
        "name": "Advantageous Medical Devices ",
        "lat": "36.8427345156669",
        "lng": "-76.0226769000291",
        "category": "VA",
        "address": "1728 Virginia Beach Blvd #115",
        "city": "Virginia Beach",
        "state": "Virginia",
        "postal": "23454",
        "phone": "757-351-0832",
        "featured": "23454"
      },
      {
        "name": "Parkersburg Orthopedics Assoc ",
        "lat": "39.2756729125976",
        "lng": "-81.5525207519531",
        "category": "WV",
        "address": "1600 Murdoch Ave",
        "city": "Parkersburg",
        "state": "West Virginia",
        "postal": "26101",
        "phone": "304-485-8040",
        "featured": "26101"
      },
      {
        "name": "Medsource USA LLC ",
        "lat": "40.50146484375",
        "lng": "-88.9266357421875",
        "category": "IL",
        "address": "3002 Gill St",
        "city": "Bloomington",
        "state": "Illinois",
        "postal": "61704",
        "phone": "309-664-7930",
        "featured": "61704"
      },
      {
        "name": "Dean Medical Center",
        "lat": "43.0592727661132",
        "lng": "-89.401512145996",
        "category": "WI",
        "address": "700 S Park St",
        "city": "Madison",
        "state": "Wisconsin",
        "postal": "53716",
        "phone": "608-260-2900",
        "featured": "53716"
      },
      {
        "name": "Sport & Spine Clinic ",
        "lat": "44.9044825136661",
        "lng": "-90.319293513894",
        "category": "WI",
        "address": "325 South Third Street, Suite B",
        "city": "Edgar",
        "state": "Wisconsin",
        "postal": "54426",
        "phone": "715-352-2780",
        "featured": "54426"
      },
      {
        "name": "Sport & Spine Clinic - Minocqua",
        "lat": "45.8787612915039",
        "lng": "-89.7025527954101",
        "category": "WI",
        "address": "8554 Hwy 51 North",
        "city": "Minocqua",
        "state": "Wisconsin",
        "postal": "54548",
        "phone": " 715-358-1929",
        "featured": "54548"
      },
      {
        "name": "Sport & Spine Clinic - Mosinee",
        "lat": "44.7891311645507",
        "lng": "-89.7182464599609",
        "category": "WI",
        "address": "1021 Western Ave, Suite B",
        "city": "Mosinee",
        "state": "Wisconsin",
        "postal": "54455",
        "phone": "715-693-7171",
        "featured": "54455"
      },
      {
        "name": "Sport & Spine Clinic - Rib Mountain",
        "lat": "44.9101181030273",
        "lng": "-89.6552810668945",
        "category": "WI",
        "address": "5200 Hummingbird Road, Suite 200",
        "city": "Wausau",
        "state": "Wisconsin",
        "postal": "54401",
        "phone": "715-359-2500",
        "featured": "54401"
      },
      {
        "name": "Sport & Spine Clinic - Stratford",
        "lat": "44.8022072017192",
        "lng": "-90.0777706503868",
        "category": "WI",
        "address": "225 North Second Ave.",
        "city": "Stratford",
        "state": "Wisconsin",
        "postal": "54484",
        "phone": "715-687-2214",
        "featured": "54484"
      },
      {
        "name": "Sport & Spine Clinic - Wausau",
        "lat": "44.9669532775878",
        "lng": "-89.6540985107421",
        "category": "WI",
        "address": "327 N. 17th Ave, Suite 007",
        "city": "Wausau",
        "state": "Wisconsin",
        "postal": "54401",
        "phone": "715-845-2942",
        "featured": "54401"
      },
      {
        "name": "Sport & Spine Clinic - Weston/Schofield",
        "lat": "44.8970718383789",
        "lng": "-89.5717315673828",
        "category": "WI",
        "address": "4107 Barbican Avenue, Suite 260",
        "city": "Weston",
        "state": "Wisconsin",
        "postal": "54476",
        "phone": "715-359-8465",
        "featured": "54476"
      },
      {
        "name": "Sport & Spine Clinic - Wittenberg",
        "lat": "44.8273887634277",
        "lng": "-89.1692352294921",
        "category": "WI",
        "address": "105 N. Genesee Street",
        "city": "Wittenberg",
        "state": "Wisconsin",
        "postal": "54499",
        "phone": " 715-253-2939",
        "featured": "54499"
      },
      {
        "name": "Strama Sport and Spine Clinic - Medford",
        "lat": "45.1321122050285",
        "lng": "-90.3325771540403",
        "category": "WI",
        "address": "640 South 8th Street",
        "city": "Medford",
        "state": "Wisconsin",
        "postal": "54451",
        "phone": " 715-748-5203",
        "featured": "54451"
      },
      {
        "name": "MioMed Orthopedics ",
        "lat": "41.9281411170959",
        "lng": "-87.6420680433511",
        "category": "IL",
        "address": "2502 N Clark St",
        "city": "Chicago",
        "state": "Illinois",
        "postal": "60614",
        "phone": "773- 477-8991",
        "featured": "60614"
      },
      {
        "name": " Mid America Orthopedics ",
        "lat": "37.7185134887695",
        "lng": "-97.2286682128906",
        "category": "KS",
        "address": "1923 N Webb Rd",
        "city": "Wichita",
        "state": "Kansas",
        "postal": "67206",
        "phone": "316-262-4886",
        "featured": "67206",
        "features": "Chirs Roy"
      },
      {
        "name": "Ozark Prosthetics",
        "lat": "37.1543769836425",
        "lng": "-93.2663040161132",
        "category": "MO",
        "address": "3250 S Delaware Ave",
        "city": "Springfield",
        "state": "Missouri",
        "postal": "65804",
        "phone": "417-889-3222",
        "featured": "65804",
        "features": "Jeff Messenger"
      },
      {
        "name": "Pain Rehab Products",
        "lat": "38.7040366977453",
        "lng": "-90.4409658908843",
        "category": "MO",
        "address": "2339 Weldon Pkwy",
        "city": "St. Louis",
        "state": "Missouri",
        "postal": "63146",
        "phone": "314-878-7553",
        "featured": "63146",
        "features": "Patty Fixley"
      },
      {
        "name": "VAMC St. Louis ",
        "lat": "38.1424407958984",
        "lng": "-90.5664978027343",
        "category": "MO",
        "address": "915 North Grand Blvd.",
        "city": "St. Louis",
        "state": "Missouri",
        "postal": "63016",
        "phone": "314-652-4100",
        "featured": "63016",
        "features": "Lou Rocko"
      },
      {
        "name": "Daily Living",
        "lat": "38.9203720092773",
        "lng": "-92.2886428833007",
        "category": "MO",
        "address": "2601 Maguire Blvd ",
        "city": "Columbia",
        "state": "Missouri",
        "postal": "65201",
        "phone": "573-234-2005",
        "featured": "65201",
        "features": "Erich Sartor"
      },
      {
        "name": "Medical Express PSI - Austin North",
        "lat": "30.3750762939453",
        "lng": "-97.7361984252929",
        "category": "TX",
        "address": "8800 B Shoal Creek",
        "city": "Austin",
        "state": "Texas",
        "postal": "78757",
        "phone": "512-371-1700",
        "featured": "78757"
      },
      {
        "name": "Medical Express PSI - Austin South",
        "lat": "30.2274913787841",
        "lng": "-97.786376953125",
        "category": "TX",
        "address": "1701 West Ben White Blvd., Ste 162",
        "city": "Austin",
        "state": "Texas",
        "postal": "78704",
        "phone": "512-445-0600",
        "featured": "78704"
      },
      {
        "name": "Medical Express PSI",
        "lat": "32.9107267409563",
        "lng": "-96.7461895197629",
        "category": "TX",
        "address": "11886 Greenville Ave, Ste 114, 112",
        "city": "Dallas",
        "state": "Texas",
        "postal": "75243",
        "phone": "214-575-0441",
        "featured": "75243"
      },
      {
        "name": "Medical Express PSI - SA Spurs Lane",
        "lat": "29.527128",
        "lng": "-98.591705",
        "category": "TX",
        "address": "21 Spurs Lane, Ste 260",
        "city": "San Antonio",
        "state": "Texas",
        "postal": "78240",
        "phone": "210-257-0705",
        "featured": "78240"
      },
      {
        "name": "Medical Express PSI",
        "lat": "32.3175468295812",
        "lng": "-95.2786664664745",
        "category": "TX",
        "address": "1825 Troup Hwy",
        "city": "Tyler",
        "state": "Texas",
        "postal": "75701",
        "phone": "903-526-6300",
        "featured": "75701"
      },
      {
        "name": "Medical Express PSI",
        "lat": "36.288002",
        "lng": "-95.848602",
        "category": "OK",
        "address": "9220 N. Garnett, Ste E",
        "city": "Owasso",
        "state": "Oklahloma",
        "postal": "74055",
        "phone": "918-376-4180",
        "featured": "74055"
      },
      {
        "name": "The Brace Place",
        "lat": "33.5720863342285",
        "lng": "-101.896110534667",
        "category": "TX",
        "address": "3719 24th St",
        "city": "Lubbock",
        "state": "Texas",
        "postal": "79410",
        "phone": " (806) 792-0395",
        "featured": "79410",
        "features": "Micah Spradling"
      },
      {
        "name": "Orthotic Partners LLC",
        "lat": "36.0952088",
        "lng": "-94.1379307",
        "category": "AR",
        "city": "Fayetteville",
        "state": "Arkansas",
        "postal": "72703",
        "phone": "270-769-6371",
        "featured": "72703"
      },
      {
        "name": "Orthotic Partners LLC",
        "lat": "34.7467578",
        "lng": "-92.347617",
        "category": "AR",
        "city": "Little Rock",
        "state": "Arkansas",
        "postal": "72205",
        "phone": " 501-666-2824",
        "featured": "72205"
      },
      {
        "name": "Durable Orthopedic Supplies",
        "lat": "31.7802728712558",
        "lng": "-106.479097902774",
        "category": "TX",
        "address": "1720 Murchison Dr",
        "city": "El Paso",
        "state": "Texas",
        "postal": "79902",
        "phone": "915-532-2228",
        "featured": "79902"
      },
      {
        "name": "Bruce Douthit MD",
        "lat": "33.1217231750488",
        "lng": "-96.7688446044921",
        "category": "TX",
        "address": "4461 Coit Rd. ",
        "city": "Frisco",
        "state": "Texas",
        "postal": "75035",
        "phone": "972-335-8455",
        "featured": "75035"
      },
      {
        "name": "Irving Ortho and Sports Med",
        "lat": "32.8355636596679",
        "lng": "-96.9584884643554",
        "category": "TX",
        "address": "2120 N MacArthur Blvd #100",
        "city": "Irving",
        "state": "Texas",
        "postal": "75061",
        "phone": "972-438-4636",
        "featured": "75061"
      },
      {
        "name": "Health Masters ",
        "lat": "31.92622756958",
        "lng": "-106.435440063476",
        "category": "TX",
        "address": "4758 Loma Del Sur Dr",
        "city": "El Paso",
        "state": "Texas",
        "postal": "79934",
        "phone": "915-755-0738",
        "featured": "79934"
      },
      {
        "name": "Health Masters ",
        "lat": "31.8022689819335",
        "lng": "-106.509078979492",
        "category": "TX",
        "address": "4646 N Mesa St",
        "city": "El Paso",
        "state": "Texas",
        "postal": "79912",
        "phone": "915-532-3707",
        "featured": "79912"
      },
      {
        "name": "Health Masters ",
        "lat": "31.728925704956",
        "lng": "-106.345626831054",
        "category": "TX",
        "address": "8111 N Loop Dr # B",
        "city": "El Paso",
        "state": "Texas",
        "postal": "79907",
        "phone": "915-593-4985",
        "featured": "79907"
      },
      {
        "name": "Westlake Ortho ",
        "lat": "30.2954730987548",
        "lng": "-97.8245010375976",
        "category": "TX",
        "address": "5656 Bee Caves Rd",
        "city": "West Lake Hills",
        "state": "Texas",
        "postal": "78746",
        "phone": "512-329-6644",
        "featured": "78746"
      },
      {
        "name": "All American Ortho & Spt Med ",
        "lat": "29.5542373657226",
        "lng": "-95.112205505371",
        "category": "TX",
        "address": "1100 Hercules Suite 100 ",
        "city": "Houston",
        "state": "Texas",
        "postal": "77058",
        "phone": "281-335-1111",
        "featured": "77058"
      },
      {
        "name": " Orthoplus Inc ",
        "lat": "29.5118427276611",
        "lng": "-98.6396102905273",
        "category": "TX",
        "address": "7823 Fortune Dr",
        "city": "San Antonio",
        "state": "Texas",
        "postal": "78250",
        "phone": "210-541-8568",
        "featured": "78250"
      },
      {
        "name": "TMC Orthopedics",
        "lat": "29.6809414029121",
        "lng": "-95.3904589265584",
        "category": "TX",
        "address": "1000 South Loop W #150",
        "city": "Houston",
        "state": "Texas",
        "postal": "77054",
        "phone": "713-747-2438",
        "featured": "77054"
      },
      {
        "name": "Choice Medical Supply ",
        "lat": "32.378849029541",
        "lng": "-99.7453079223632",
        "category": "TX",
        "address": "17 Windmill Cir",
        "city": "Abilene",
        "state": "Texas",
        "postal": "79606",
        "phone": "325-677-2250",
        "featured": "79606"
      },
      {
        "name": "Ortho Texas Physicians and Surgeons ",
        "lat": "33.0432090759277",
        "lng": "-96.879898071289",
        "category": "TX",
        "address": "4780 North Josey Lane",
        "city": "Carrollton",
        "state": "Texas",
        "postal": "75010",
        "phone": "972-492-1334",
        "featured": "75010"
      },
      {
        "name": "Select Ortho DME Solutions ",
        "lat": "35.4767837524414",
        "lng": "-97.5236206054687",
        "category": "OK",
        "address": "608 NW 9th Street Suite 6000",
        "city": "Oklahoma City",
        "state": "Oklahloma",
        "postal": "73102",
        "phone": "270-769-6371",
        "featured": "73102"
      },
      {
        "name": "VAMC Alexandria ",
        "lat": "31.3551930338144",
        "lng": "-92.434342727065",
        "category": "LA",
        "address": "2495 Shreveport Highway",
        "city": "Pineville",
        "state": "Louisiana",
        "postal": "71360",
        "phone": "318-466-4000",
        "featured": "71360"
      },
      {
        "name": "Mediquip Int.",
        "lat": "33.200508",
        "lng": "-96.711776",
        "category": "TX",
        "address": "7290 Virginia Pkwy #3000",
        "city": "McKinney",
        "state": "Texas",
        "postal": "75071",
        "phone": "972-547-1400",
        "featured": "75071"
      },
      {
        "name": "Performance Ortho and Sports",
        "lat": "33.121723",
        "lng": "-96.768844",
        "category": "TX",
        "address": "4461 Coit Rd #301",
        "city": "Frisco",
        "state": "Texas",
        "postal": "75035",
        "phone": "214-705-2861",
        "featured": "75035"
      },
      {
        "name": "Laredo Sports Medicine Clinic",
        "lat": "27.5967288762331",
        "lng": "-99.4809249043464",
        "category": "TX",
        "address": "9652 McPherson Rd #6",
        "city": "Laredo",
        "state": "Texas",
        "postal": "78045",
        "phone": "956-727-2122",
        "featured": "78045"
      },
      {
        "name": "West Texas Orthopedics",
        "lat": "32.0043983459472",
        "lng": "-102.134445190429",
        "category": "TX",
        "address": "4214 Andrews Highway, Suite 208",
        "city": "Midland",
        "state": "Texas",
        "postal": "79703",
        "phone": "432-686-0321",
        "featured": "79703"
      },
      {
        "name": "West Texas Orthopedics",
        "lat": "32.0330123901367",
        "lng": "-102.088317871093",
        "category": "TX",
        "address": "#10 Desta Drive, Suite 100E",
        "city": "Midland",
        "state": "Texas",
        "postal": "79705",
        "phone": "432-686-0321",
        "featured": "79705"
      },
      {
        "name": " Medicos Orthopedic Supplies ",
        "lat": "32.9101554304361",
        "lng": "-96.6574734449386",
        "category": "TX",
        "address": "1910 Silver St ",
        "city": "Garland",
        "state": "Texas",
        "postal": "75042",
        "phone": "972-494-3334",
        "featured": "75042",
        "features": "Tim Williams or Terry Tausch"
      },
      {
        "name": "Strobel & Associates",
        "lat": "33.0411109924316",
        "lng": "-96.7259292602539",
        "category": "TX",
        "address": "21 W Parker Rd",
        "city": "Plano ",
        "state": "Texas",
        "postal": "75023",
        "phone": "972-516-9538",
        "featured": "75023",
        "features": "Natalie Stewart"
      },
      {
        "name": "North Bay Orthopaedics ",
        "lat": "39.5436744689941",
        "lng": "-76.0911178588867",
        "category": "MD",
        "address": "421 S Union Ave",
        "city": "Havre de Grace",
        "state": "Maryland",
        "postal": "21078",
        "phone": "410-939-7077",
        "featured": "21078"
      },
      {
        "name": "The Training Room Inc.",
        "lat": "39.5917015075683",
        "lng": "-76.8496322631835",
        "category": "MD",
        "address": "626 Hanover Pike",
        "city": "Hampstead",
        "state": "Maryland",
        "postal": "21074",
        "phone": "800-500-1878",
        "featured": "21074"
      },
      {
        "name": "Montgomery Sports Medicine",
        "lat": "39.0377807617187",
        "lng": "-76.990867614746",
        "category": "MD",
        "address": "11120 New Hampshire Ave #411",
        "city": "Silver Spring",
        "state": "Maryland",
        "postal": "20904",
        "phone": "301-754-0505",
        "featured": "20904"
      },
      {
        "name": "Orthocare Solutions Inc",
        "lat": "39.0495986938476",
        "lng": "-77.1230316162109",
        "category": "MD",
        "address": "6101 Executive Blvd",
        "city": "Rockville",
        "state": "Maryland",
        "postal": "20852",
        "phone": "301-990-1640",
        "featured": "20852"
      },
      {
        "name": "Specialized Orthopedic Services, Inc.",
        "lat": "38.8977088928222",
        "lng": "-77.2716445922851",
        "category": "VA",
        "address": "307 Maple Ave W",
        "city": "Vienna",
        "state": "Virginia",
        "postal": "22180",
        "phone": "703-281-1200",
        "featured": "22180"
      },
      {
        "name": "Alperts Orthotic Service ",
        "lat": "39.6490592956542",
        "lng": "-78.7696685791015",
        "category": "MD",
        "address": "22 Paca St.",
        "city": "Cumberland",
        "state": "Maryland",
        "postal": "21502",
        "phone": "301-722-3317",
        "featured": "21502"
      },
      {
        "name": " Ortho Medical Supply",
        "lat": "33.8361358642578",
        "lng": "-117.56541442871",
        "category": "CA",
        "address": "3450 Garretson Ave",
        "city": "Corona",
        "state": "California",
        "postal": "92881",
        "phone": "951-549-9696",
        "featured": "92881"
      },
      {
        "name": "Next Step Medical ",
        "lat": "36.0786628723144",
        "lng": "-115.278915405273",
        "category": "NV",
        "address": "6048 S Durango Dr",
        "city": "Las Vegas",
        "state": "Nevada",
        "postal": "89113",
        "phone": "702-489-8165",
        "featured": "89113"
      },
      {
        "name": "Michael S. Marandola, MD-Community Orthopedics",
        "lat": "33.564876",
        "lng": "-117.658767",
        "category": "CA",
        "address": "26401 Crown Valley Parkway, Ste 101 ",
        "city": "Mission Viejo",
        "state": "California",
        "postal": "92691",
        "phone": "949-348-4000",
        "featured": "92691"
      },
      {
        "name": "Michael J. Fitzpatrick, MD-South Orange County Orthopedics",
        "lat": "33.5636682808399",
        "lng": "-117.664753049612",
        "category": "CA",
        "address": "26730 Crown Valley Pkwy. Ste 200 ",
        "city": "Mission Viejo",
        "state": "California",
        "postal": "92691",
        "phone": "949-364-2154 ",
        "featured": "92691"
      },
      {
        "name": "Herbert C. Eidt, MD-South Orange County Orthopedics",
        "lat": "33.5636682808399",
        "lng": "-117.664753049612",
        "category": "CA",
        "address": "26730 Crown Valley Pkwy. Ste 200 ",
        "city": "Mission Viejo",
        "state": "California",
        "postal": "92691",
        "phone": "949-364-2154 ",
        "featured": "92691"
      },
      {
        "name": "Samuel W. Park, MD-South Orange County Orthopedics",
        "lat": "33.5636682808399",
        "lng": "-117.664753049612",
        "category": "CA",
        "address": "26730 Crown Valley Pkwy. Ste 200 ",
        "city": "Mission Viejo",
        "state": "California",
        "postal": "92691",
        "phone": "949-364-2154 ",
        "featured": "92691"
      },
      {
        "name": "Randall E. Yee, MD-Advanced Orthopedics and Sports Medicine",
        "lat": "36.0569114685058",
        "lng": "-115.275093078613",
        "category": "NV",
        "address": "8420 W. Warm Springs Rd. ",
        "city": "Las Vegas",
        "state": "Nevada",
        "postal": "89113",
        "phone": "702-529-3479",
        "featured": "89113"
      },
      {
        "name": "VAMC Loma Linda",
        "lat": "34.0501023083925",
        "lng": "-117.252345979213",
        "category": "CA",
        "address": "11201 Benton Street",
        "city": "Loma Linda",
        "state": "California",
        "postal": "92357",
        "phone": "909-825-7084",
        "featured": "92357"
      },
      {
        "name": " Sunny Hills Prosthetic Service",
        "lat": "33.8700523376464",
        "lng": "-117.918800354003",
        "category": "CA",
        "address": "332 E Commonwealth Ave",
        "city": "Fullerton",
        "state": "California",
        "postal": "92832",
        "phone": "714-738-4769",
        "featured": "92832"
      },
      {
        "name": "Chad M. Hanson, MD-Desert Orthopedic Center",
        "lat": "36.27779",
        "lng": "-115.282806",
        "category": "NV",
        "address": "8402 W. Centennial Pkwy",
        "city": "Las Vegas",
        "state": "Nevada",
        "postal": "89149",
        "phone": "702-869-3486",
        "featured": "89149"
      },
      {
        "name": "S. Shawn Solhpour, MD-St. Jude Orthopedics",
        "lat": "33.8940361",
        "lng": "-117.9311894",
        "category": "CA",
        "address": "2141 N. Harbor Blvd, Suite 35000 ",
        "city": "Fullerton",
        "state": "California",
        "postal": "92835",
        "phone": "714-626-8630",
        "featured": "92835"
      },
      {
        "name": "Bradley L. Baum, MD-Corona Temecula Orthopedic",
        "lat": "33.852989450097",
        "lng": "-117.56473749876",
        "category": "CA",
        "address": "342 Magnolia Ave, Suite 101",
        "city": "Corona",
        "state": "California",
        "postal": "92879",
        "phone": "951-735-6060",
        "featured": "92879"
      },
      {
        "name": "Medica, a division of Medequip",
        "lat": "33.5909576416015",
        "lng": "-117.730270385742",
        "category": "CA",
        "address": "27 Brookline",
        "city": "Aliso Viejo",
        "state": "California",
        "postal": "92656",
        "phone": "949-443-4414",
        "featured": "92656"
      },
      {
        "name": "Hub Medical ",
        "lat": "33.131446391344",
        "lng": "-117.253200262784",
        "category": "CA",
        "address": "2794 Loker Ave W",
        "city": "Carlsbad",
        "state": "California",
        "postal": "92010",
        "phone": "760-438-3868",
        "featured": "92010"
      },
      {
        "name": "Southern California Bone & Joint Clinic",
        "lat": "34.4697265625",
        "lng": "-117.262573242187",
        "category": "CA",
        "address": "12021 Jacaranda Ave",
        "city": "Hesperia",
        "state": "California",
        "postal": "92345",
        "phone": "760-956-5200",
        "featured": "92345"
      },
      {
        "name": "Emere Medical Prof Corp",
        "lat": "40.8976511657238",
        "lng": "-111.892244294285",
        "category": "UT",
        "address": "801 N 500 W Ste 100 ",
        "city": "Bountiful",
        "state": "Utah",
        "postal": "84010",
        "phone": "949-610-1042",
        "featured": "84010"
      },
      {
        "name": "Prosthetics Etc. ",
        "lat": "33.8397521972656",
        "lng": "-117.893684387207",
        "category": "CA",
        "address": "1700 E Lincoln Ave",
        "city": "Anaheim",
        "state": "California",
        "postal": "92805",
        "phone": "714-502-9354",
        "featured": "92805"
      },
      {
        "name": " San Diego Spine And Rehab ",
        "lat": "32.8051223754882",
        "lng": "-117.12133026123",
        "category": "CA",
        "address": "9610 Granite Ridge Dr",
        "city": "San Diego",
        "state": "California",
        "postal": "92123",
        "phone": "858-573-0550",
        "featured": "92123"
      },
      {
        "name": " San Diego Spine And Rehab ",
        "lat": "33.2267456054687",
        "lng": "-117.332603454589",
        "category": "CA",
        "address": "3772 Mission Ave. Suite 122",
        "city": "Oceanside",
        "state": "California",
        "postal": "92058",
        "phone": "760-630-8400 ",
        "featured": "92058"
      },
      {
        "name": "William Winternitz MD ",
        "lat": "32.9955902099609",
        "lng": "-117.056007385253",
        "category": "CA",
        "address": "12630 Monte Vista Rd",
        "city": "Poway",
        "state": "California",
        "postal": "92064",
        "phone": "858-487-6440",
        "featured": "92064"
      },
      {
        "name": "Johnsons Orthopedic",
        "lat": "33.943603515625",
        "lng": "-117.404754638671",
        "category": "CA",
        "address": "7254 Magnolia Ave",
        "city": "Riverside",
        "state": "California",
        "postal": "92504",
        "phone": "951-785-4411",
        "featured": "92504"
      },
      {
        "name": "Orthoplus, Inc. ",
        "lat": "33.2109107971191",
        "lng": "-117.312805175781",
        "category": "CA",
        "address": "3606 Ocean Ranch Blvd ",
        "city": "Oceanside",
        "state": "California",
        "postal": "92056",
        "phone": "858-735-9330",
        "featured": "92056"
      },
      {
        "name": "Accurate Medical Services ",
        "lat": "34.0656967163085",
        "lng": "-118.459403991699",
        "category": "CA",
        "address": "522 S Sepulveda Blvd",
        "city": "Los Angeles",
        "state": "California",
        "postal": "90049",
        "phone": "310-472-4257",
        "featured": "90049"
      },
      {
        "name": "Steven C. Thomas, MD-Knee and Shoulder Institute",
        "lat": "36.158306",
        "lng": "-115.302261",
        "category": "NV",
        "address": "9499 W Charleston Blvd #200",
        "city": "Las Vegas",
        "state": "Nevada",
        "postal": "89117",
        "phone": "702-933-9393",
        "featured": "89117"
      },
      {
        "name": "Gregory T. Bigler-Knee and Shoulder Institute",
        "lat": "36.158306",
        "lng": "-115.302261",
        "category": "NV",
        "address": "9499 W Charleston Blvd #200",
        "city": "Las Vegas",
        "state": "Nevada",
        "postal": "89117",
        "phone": "702-933-9393",
        "featured": "89117"
      },
      {
        "name": "Medica a division of MedEquip ",
        "lat": "39.6434173583984",
        "lng": "-106.380859375",
        "category": "CO",
        "address": "108 South Frontage Rd W",
        "city": "Vail",
        "state": "Colorado ",
        "postal": "81657",
        "phone": "970-476-7701",
        "featured": "81657"
      },
      {
        "name": "Frontline Medical Innovations LLC",
        "lat": "39.727561",
        "lng": "-105.00122",
        "category": "CO",
        "address": "1025 W 7th Ave",
        "city": "Castle Rock",
        "state": "Colorado ",
        "postal": "80104",
        "phone": "303-681-0444",
        "featured": "80104"
      },
      {
        "name": "Orthopedic Solutions",
        "lat": "39.6169853210449",
        "lng": "-104.857612609863",
        "category": "CO",
        "address": "11254 East Berry Drive",
        "city": "Greenwood Village",
        "state": "Colorado ",
        "postal": "80111",
        "phone": "303-793-0477",
        "featured": "80111"
      },
      {
        "name": "Rehab Specialists LLC ",
        "lat": "40.6031036376953",
        "lng": "-111.938270568847",
        "category": "UT",
        "address": "8145 Redwood Rd.",
        "city": "West Jordan",
        "state": "Utah",
        "postal": "84088",
        "phone": "801-282-3697",
        "featured": "84088"
      },
      {
        "name": "Rocky Mountain Orthopedics",
        "lat": "39.0958671569824",
        "lng": "-108.580780029296",
        "category": "CO",
        "address": "627 25 1/2 Rd.",
        "city": "Grand Junction ",
        "state": "Colorado ",
        "postal": "81505",
        "phone": "970-242-3535",
        "featured": "81505"
      },
      {
        "name": "Muir Orthopaedic Specialists ",
        "lat": "37.9199676513671",
        "lng": "-121.733795166015",
        "category": "CA",
        "address": "350 John Muir Parkway",
        "city": "Brentwood",
        "state": "California",
        "postal": "94513",
        "phone": "925-939-8585",
        "featured": "94513"
      },
      {
        "name": "Muir Orthopaedic Specialists ",
        "lat": "37.9252662658691",
        "lng": "-122.025482177734",
        "category": "CA",
        "address": "2405 Shadelands Drive",
        "city": "Walnut Creek",
        "state": "California",
        "postal": "94598",
        "phone": "925-939-8585",
        "featured": "94598"
      },
      {
        "name": "Muir Orthopaedic Specialists ",
        "lat": "37.7772966027259",
        "lng": "-121.960446238517",
        "category": "CA",
        "address": "5201 Norris Canyon Rd #300",
        "city": "San Ramon",
        "state": "California",
        "postal": "94583",
        "phone": "925-939-8585",
        "featured": "94583"
      },
      {
        "name": "Harbor Medical Svcs LLC ",
        "lat": "37.273792",
        "lng": "-121.880386",
        "category": "CA",
        "address": "3162 Newberry Dr Ste B",
        "city": "San Jose",
        "state": "California",
        "postal": "95118",
        "phone": "408-978-1197",
        "featured": "95118"
      },
      {
        "name": "Applied O & P ",
        "lat": "37.2529983520507",
        "lng": "-121.94831085205",
        "category": "CA",
        "address": "2577 Samaritan Dr",
        "city": "San Jose",
        "state": "California",
        "postal": "95124",
        "phone": "408-358-9741",
        "featured": "95124"
      },
      {
        "name": "Elite Biomechanical Design",
        "lat": "39.7422218322753",
        "lng": "-121.838020324707",
        "category": "CA",
        "address": "1140 Mangrove Ave",
        "city": "Chico",
        "state": "California",
        "postal": "95926",
        "phone": "530-894-6913",
        "featured": "95926"
      },
      {
        "name": "Monterey Spine and Joint",
        "lat": "36.6049658",
        "lng": "-121.9257122",
        "category": "CA",
        "address": "12 Upper Ragsdale, Suite A",
        "city": "Monterey",
        "state": "California",
        "postal": "93940",
        "phone": "831-648-7200 ",
        "featured": "93940"
      },
      {
        "name": "Atlantis Orthopaedics PA ",
        "lat": "26.8306557834148",
        "lng": "-80.0874727964401",
        "category": "FL",
        "address": "3370 Burns Road, Suite 205",
        "city": "Palm Beach Gardens",
        "state": "Florida",
        "postal": "33410",
        "phone": "561-967-4400",
        "featured": "33410"
      },
      {
        "name": "Atlantis Orthopaedics PA ",
        "lat": "26.6007368266582",
        "lng": "-80.0907752662897",
        "category": "FL",
        "address": "130 JFK Drive Suite 201",
        "city": "Atlantis",
        "state": "Florida",
        "postal": "33462",
        "phone": "561-967-4400",
        "featured": "33462"
      },
      {
        "name": "Florida Orthopaedic Specialists ",
        "lat": "27.3000644",
        "lng": "-80.3073531",
        "category": "FL",
        "address": "9077 S Federal Hwy",
        "city": "Port St. Lucie",
        "state": "Florida",
        "postal": "34592",
        "phone": "772-335-4770",
        "featured": "34592"
      },
      {
        "name": "Sports Medicine Assoc ",
        "lat": "26.0915248095989",
        "lng": "-80.3666994720697",
        "category": "FL",
        "address": "2137 N Commerce Pkwy",
        "city": "Weston",
        "state": "Florida",
        "postal": "33326",
        "phone": "954-389-5900",
        "featured": "33326"
      },
      {
        "name": "Team Post-op",
        "lat": "25.6379920989274",
        "lng": "-80.4259917140007",
        "category": "FL",
        "address": "13921 SW 143rd Ct #5",
        "city": "Miami",
        "state": "Florida",
        "postal": "33186",
        "phone": "305-252-0963",
        "featured": "33186"
      },
      {
        "name": "Augusta Prosthetics",
        "lat": "33.4667015075683",
        "lng": "-82.0117721557617",
        "category": "GA",
        "address": "2068 Wrightsboro Rd",
        "city": "Augusta",
        "state": "Georgia",
        "postal": "30904",
        "phone": "706-733-8878",
        "featured": "30904"
      },
      {
        "name": "The Emory Clinic",
        "lat": "33.7886479496955",
        "lng": "-84.3393869698047",
        "category": "GA",
        "address": "1256 Briarcliff Rd NE",
        "city": "Atlanta",
        "state": "Georgia",
        "postal": "30306",
        "phone": "404-727-3443",
        "featured": "30306"
      },
      {
        "name": "Premier Medical Services ",
        "lat": "34.2049331665039",
        "lng": "-84.134162902832",
        "category": "GA",
        "address": "407 East Maple Street, Suite 101",
        "city": "Cumming",
        "state": "Georgia",
        "postal": "30040",
        "phone": "770-888-6697",
        "featured": "30040"
      },
      {
        "name": "Perimeter Orthopaedics ",
        "lat": "33.9104270935058",
        "lng": "-84.3502197265625",
        "category": "GA",
        "address": "5673 Peachtree Dunwoody Rd., Suite 825",
        "city": "Atlanta",
        "state": "Georgia",
        "postal": "30342",
        "phone": "404-255-5595",
        "featured": "30342"
      },
      {
        "name": "Sugarloaf Spine & Rehab ",
        "lat": "33.9729576110839",
        "lng": "-84.0321044921875",
        "category": "GA",
        "address": "1180 McKendree Church Rd #202",
        "city": "Lawrenceville",
        "state": "Georgia",
        "postal": "30043",
        "phone": "770-464-5100",
        "featured": "30043"
      },
      {
        "name": "Rome Orthopaedic Center",
        "lat": "34.289641007781",
        "lng": "-85.1502314954996",
        "category": "GA",
        "address": "100 Three Rivers Drive NE",
        "city": "Rome",
        "state": "Georgia",
        "postal": "30161",
        "phone": "706-292-0040",
        "featured": "30161"
      },
      {
        "name": "Riverside Spine and Pain Physicians",
        "lat": "30.225631",
        "lng": "-81.701751",
        "category": "FL",
        "address": "7207 Golden Wings Road, Suite 100",
        "city": "Jacksonville",
        "state": "Florida",
        "postal": "32244",
        "phone": "904-389-1010",
        "featured": "32244"
      },
      {
        "name": "Riverside Spine and Pain Physicians",
        "lat": "30.0810813903808",
        "lng": "-81.7088394165039",
        "category": "FL",
        "address": "2349 Village Square Parkway, Suite 107",
        "city": "Fleming Island",
        "state": "Florida",
        "postal": "32003",
        "phone": "904-389-1010",
        "featured": "32003"
      },
      {
        "name": "Riverside Spine and Pain Physicians",
        "lat": "30.233995437622",
        "lng": "-81.5094146728515",
        "category": "FL",
        "address": "7751 Baymeadows Road East, Suite 103",
        "city": "Jacksonville",
        "state": "Florida",
        "postal": "32256",
        "phone": "904-389-1010",
        "featured": "32256"
      },
      {
        "name": "Riverside Spine and Pain Physicians",
        "lat": "30.1509838104248",
        "lng": "-81.6332321166992",
        "category": "FL",
        "address": "12078 San Jose Blvd., Suite 2",
        "city": "Jacksonville",
        "state": "Florida",
        "postal": "32223",
        "phone": "904-389-1010",
        "featured": "32223"
      },
      {
        "name": "Riverside Spine and Pain Physicians",
        "lat": "30.4382362365722",
        "lng": "-81.6852111816406",
        "category": "FL",
        "address": "2386 Dunn Avenue, Suite 111",
        "city": "Jacksonville",
        "state": "Florida",
        "postal": "32218",
        "phone": "904-389-1010",
        "featured": "32218"
      },
      {
        "name": "Riverside Spine and Pain Physicians",
        "lat": "30.2720613777637",
        "lng": "-81.4005113393068",
        "category": "FL",
        "address": "1577 Roberts Drive, Suite 326",
        "city": "Jacksonville Beach",
        "state": "Florida",
        "postal": "32250",
        "phone": "904-389-1010",
        "featured": "32250"
      },
      {
        "name": "Riverside Spine and Pain Physicians",
        "lat": "29.8104391247034",
        "lng": "-81.3223236054182",
        "category": "FL",
        "address": "105 Mariner Health Way, Unit 203",
        "city": "St. Augustine",
        "state": "Florida",
        "postal": "32086",
        "phone": "904-389-1010",
        "featured": "32086"
      },
      {
        "name": "Jacksonville Ortho Institute ",
        "lat": "30.2720613777637",
        "lng": "-81.4005113393068",
        "category": "FL",
        "address": "1577 Roberts Drive, Suite 225",
        "city": "Jacksonville ",
        "state": "Florida",
        "postal": "32250",
        "phone": "904-241-1204",
        "featured": "32250"
      },
      {
        "name": "Jacksonville Ortho Institute ",
        "lat": "30.1388766",
        "lng": "-81.5373811",
        "category": "FL",
        "address": "14540 Old St. Augustine Road, Suite 2201",
        "city": "Jacksonville",
        "state": "Florida",
        "postal": "32258",
        "phone": "904-880-1260",
        "featured": "32258"
      },
      {
        "name": "Jacksonville Ortho Institute ",
        "lat": "30.3081308",
        "lng": "-81.6909516",
        "category": "FL",
        "address": "2 Shircliff Way, DePaul Building, Suite 300",
        "city": "Jacksonville",
        "state": "Florida",
        "postal": "32204",
        "phone": "904-388-1400 ",
        "featured": "32204"
      },
      {
        "name": "Jacksonville Ortho Institute ",
        "lat": "30.0937900543212",
        "lng": "-81.7112426757812",
        "category": "FL",
        "address": "1845 Town Center Blvd., Ste. 405",
        "city": "Fleming Beach",
        "state": "Florida",
        "postal": "32003",
        "phone": "904-276-5776",
        "featured": "32003"
      },
      {
        "name": "Jacksonville Ortho Institute ",
        "lat": "30.312431",
        "lng": "-81.65995",
        "category": "FL",
        "address": "1325 San Marco Blvd., Suite 200",
        "city": "Jacksonville",
        "state": "Florida",
        "postal": "32207",
        "phone": "904.858.6400",
        "featured": "32207"
      },
      {
        "name": "Jacksonville Ortho Institute ",
        "lat": "30.2805938720703",
        "lng": "-81.6041870117187",
        "category": "FL",
        "address": "5737 Barnhill Drive, Suite 102",
        "city": "Jacksonville",
        "state": "Florida",
        "postal": "32207",
        "phone": "904-739-3319",
        "featured": "32207"
      },
      {
        "name": "Capital Medical Corp ",
        "lat": "30.4968982189893",
        "lng": "-84.2529018223285",
        "category": "FL",
        "address": "1324 Thomaswood Dr",
        "city": "Tallahassee",
        "state": "Florida",
        "postal": "32308",
        "phone": "850-386-1978",
        "featured": "32308"
      },
      {
        "name": "Physicians Group Services ",
        "lat": "30.0528526306152",
        "lng": "-81.8624038696289",
        "category": "FL",
        "address": "3839 COUNTY ROAD 218",
        "city": "Middleburg",
        "state": "Florida",
        "postal": "32068",
        "phone": "904-282-6331",
        "featured": "32068"
      },
      {
        "name": "Ortho Georgia ",
        "lat": "32.8951225280761",
        "lng": "-83.6911392211914",
        "category": "GA",
        "address": "3708 Northside Dr",
        "city": "Macon ",
        "state": "Georgia",
        "postal": "31210",
        "phone": "478-745-4206",
        "featured": "31210"
      },
      {
        "name": "Southeastern Health Plus ",
        "lat": "33.7335580587387",
        "lng": "-78.86000610888",
        "category": "SC",
        "address": "1301 48th Avenue North, Suite C",
        "city": "Myrtle Beach",
        "state": "South Carolina",
        "postal": "29577",
        "phone": "843-839-1374",
        "featured": "29577"
      },
      {
        "name": "Ventura Ortho & Sports Med",
        "lat": "34.2772369384765",
        "lng": "-119.248222351074",
        "category": "CA",
        "address": "3525 Loma Vista Road",
        "city": "Ventura",
        "state": "California",
        "postal": "93003",
        "phone": "805-641-6415",
        "featured": "93003"
      },
      {
        "name": "Ventura Ortho & Sports Med",
        "lat": "34.217071",
        "lng": "-119.147514",
        "category": "CA",
        "address": "2221 Wankel Way",
        "city": "Oxnard",
        "state": "California",
        "postal": "93036",
        "phone": "805-988-9366",
        "featured": "93036"
      },
      {
        "name": "Ventura Ortho & Sports Med",
        "lat": "34.2807998657226",
        "lng": "-118.761825561523",
        "category": "CA",
        "address": "2525 Erringer Road",
        "city": "Simi Valley",
        "state": "California",
        "postal": "93065",
        "phone": "805-527-1404",
        "featured": "93065"
      },
      {
        "name": "Ventura Ortho & Sports Med",
        "lat": "34.208812713623",
        "lng": "-118.88459777832",
        "category": "CA",
        "address": "2230 Lynn Road, Suite 220",
        "city": "Thousand Oaks",
        "state": "California",
        "postal": "91360",
        "phone": "805-379-4574",
        "featured": "91360"
      },
      {
        "name": "Beverly Orthopedic Lab ",
        "lat": "34.0149807929992",
        "lng": "-118.095743134617",
        "category": "CA",
        "address": "237 E Beverly Blvd",
        "city": "Montebello",
        "state": "California",
        "postal": "90640",
        "phone": "323-727-2887",
        "featured": "90640"
      },
      {
        "name": "Specialized Orthopedic Solutions, Inc",
        "lat": "34.1944950073957",
        "lng": "-118.534794598817",
        "category": "CA",
        "address": "6851 Canby Ave., Suite 102",
        "city": "Reseda",
        "state": "California",
        "postal": "91335",
        "phone": "1-800-863-1769",
        "featured": "91335"
      },
      {
        "name": "Ortho Pros",
        "lat": "34.0298805236816",
        "lng": "-118.480148315429",
        "category": "CA",
        "address": "2021 Santa Monica Blvd",
        "city": "Santa Monica",
        "state": "California",
        "postal": "90404",
        "phone": "310-828-7485",
        "featured": "90404"
      },
      {
        "name": "Air Way Medical ",
        "lat": "37.3617439270019",
        "lng": "-118.388351440429",
        "category": "CA",
        "address": "437 E Line St",
        "city": "Bishop",
        "state": "California",
        "postal": "93514",
        "phone": "760-872-1117",
        "featured": "93514"
      },
      {
        "name": "Alliance Prosthetics & Ortho ",
        "lat": "33.9677430689334",
        "lng": "-118.045687079429",
        "category": "CA",
        "address": "12458 Washington Blvd",
        "city": "Whittier",
        "state": "California",
        "postal": "90602",
        "phone": "562-945-1111",
        "featured": "90602"
      },
      {
        "name": "Avasco Medical Supply Inc ",
        "lat": "34.2703132629394",
        "lng": "-118.783943176269",
        "category": "CA",
        "address": "690 E Los Angeles Ave",
        "city": "Simi Valley",
        "state": "California",
        "postal": "93065",
        "phone": "818-904-1510",
        "featured": "93065"
      },
      {
        "name": "Mammoth Hospital",
        "lat": "37.6457550376653",
        "lng": "-118.963907808065",
        "category": "CA",
        "address": "85 Sierra Park Rd",
        "city": "Mammoth Lakes",
        "state": "California",
        "postal": "93546",
        "phone": "760-934-3311",
        "featured": "93546"
      },
      {
        "name": "Peter Borden MD ",
        "lat": "33.8126411437988",
        "lng": "-118.349311828613",
        "category": "CA",
        "address": "23456 Hawthorne Blvd",
        "city": "Torrance",
        "state": "California",
        "postal": "90505",
        "phone": "310-375-8700",
        "featured": "90505"
      },
      {
        "name": "Precision Orth. & Prosth. Inc",
        "lat": "34.0688858032226",
        "lng": "-118.276268005371",
        "category": "CA",
        "address": "2550 Beverly Blvd,",
        "city": "Los Angeles",
        "state": "California",
        "postal": "90057",
        "phone": "213-388-5847",
        "featured": "90057"
      },
      {
        "name": "Los Alamitos Orthopedic",
        "lat": "33.8037300109863",
        "lng": "-118.067268371582",
        "category": "CA",
        "address": "3771 Katella Ave",
        "city": "Los Alamitos",
        "state": "California",
        "postal": "90720",
        "phone": "562-314-1400",
        "featured": "90720"
      },
      {
        "name": "Premier Home Care Inc",
        "lat": "38.202823638916",
        "lng": "-85.5440673828125",
        "category": "KY",
        "address": "11530 Electron Drive",
        "city": "Louisville",
        "state": "Kentucky ",
        "postal": "40299",
        "phone": "502-491-5243",
        "featured": "40299"
      },
      {
        "name": "Premier Home Care Inc",
        "lat": "37.4664279073476",
        "lng": "-82.5311449170112",
        "category": "KY",
        "address": "404 South Mayo Trail Suite 9",
        "city": "Pikeville  ",
        "state": "Kentucky ",
        "postal": "41501",
        "phone": "606-437-5562",
        "featured": "41501"
      },
      {
        "name": "Premier Home Care Inc",
        "lat": "37.9999407380819",
        "lng": "-84.5212621986865",
        "category": "KY",
        "address": "149 Moore Drive",
        "city": "Lexington",
        "state": "Kentucky ",
        "postal": "40503",
        "phone": "502-260-1743",
        "featured": "40503"
      },
      {
        "name": "Premier Home Care Inc",
        "lat": "37.7127571105957",
        "lng": "-85.877197265625",
        "category": "KY",
        "address": "1020 North Dixie Avenue",
        "city": "Elizabethtown",
        "state": "Kentucky ",
        "postal": "42701",
        "phone": "270-982-5800",
        "featured": "42701"
      },
      {
        "name": "Premier Home Care Inc",
        "lat": "37.73232601583",
        "lng": "-84.2685015499591",
        "category": "KY",
        "address": "1060 Center Drive",
        "city": "Richmond ",
        "state": "Kentucky ",
        "postal": "40475",
        "phone": " 859-623-5028",
        "featured": "40475"
      },
      {
        "name": "Premier Home Care Inc",
        "lat": "38.6828224360942",
        "lng": "-85.7941460609436",
        "category": "IN",
        "address": "575 South Lake Road South",
        "city": "Scottsburg",
        "state": "Indiana",
        "postal": "47170",
        "phone": "12-752-9449",
        "featured": "47170"
      },
      {
        "name": "Premier Home Care Inc",
        "lat": "37.1260864287614",
        "lng": "-84.0810775011777",
        "category": "KY ",
        "address": "510 South Main Street",
        "city": "London ",
        "state": "Kentucky ",
        "postal": "40741",
        "phone": "606-878-0009",
        "featured": "40741"
      },
      {
        "name": "VAMC Lexington ",
        "lat": "38.0263859778642",
        "lng": "-84.507113546133",
        "category": "KY",
        "address": "1101 Veterans Dr",
        "city": "Lexington",
        "state": "Kentucky ",
        "postal": "40502",
        "phone": "859-233-4511",
        "featured": "40502"
      },
      {
        "name": "Skeletal Fix",
        "lat": "40.1247520446777",
        "lng": "-86.0525665283203",
        "category": "IN",
        "address": "23119 Sonoma Lane",
        "city": "Cicero",
        "state": "Indiana",
        "postal": "46034",
        "phone": "317-409-4164",
        "featured": "46034"
      },
      {
        "name": "BioWorks",
        "lat": "39.2354508",
        "lng": "-84.4172257",
        "category": "OH",
        "address": "7791 Cooper Road Suite H. ",
        "city": "Cincinnati",
        "state": "Ohio",
        "postal": "45242",
        "phone": "513-793-7335",
        "featured": "45242"
      },
      {
        "name": "Wellington Orthopedic & Sports ",
        "lat": "39.0686950683593",
        "lng": "-84.3517684936523",
        "category": "OH",
        "address": "7575 Five Mile Road",
        "city": "Cincinnati",
        "state": "Ohio",
        "postal": "45230",
        "phone": "513-232-6677",
        "featured": "45230"
      },
      {
        "name": "GK Medical ",
        "lat": "38.2779409736394",
        "lng": "-85.6365112960338",
        "category": "KY",
        "address": "4850 Brownsboro Center",
        "city": "Louisville ",
        "state": "Kentucky ",
        "postal": "40207",
        "phone": "502-899-9177",
        "featured": "40207"
      },
      {
        "name": "MioMed",
        "lat": "41.9281411170959",
        "lng": "-87.6420680433511",
        "category": "IL",
        "address": "2502 N Clark St",
        "city": "Chicago",
        "state": "Illinois",
        "postal": "60614",
        "phone": "773-477-8991",
        "featured": "60614",
        "features": "Mark Sorenson"
      },
      {
        "name": "Windy City Orthopedic",
        "lat": "41.7936953902244",
        "lng": "-88.0537341535091",
        "category": "IL",
        "address": "2848 Hitchcock Ave",
        "city": "Downers Grove",
        "state": "Illinois",
        "postal": "60515",
        "phone": "630-324-4343",
        "featured": "60515",
        "features": "Larry Montgomery"
      },
      {
        "name": "Omni Prosthetics & Orthotics ",
        "lat": "40.1090202331542",
        "lng": "-88.2045440673828",
        "category": "IL",
        "address": "502 S Vine St",
        "city": "Urbana",
        "state": "Illinois",
        "postal": "61801",
        "phone": "217-344-6664",
        "featured": "61801",
        "features": "Bob Devlin"
      },
      {
        "name": "Medsource USA LLC ",
        "lat": "40.50146484375",
        "lng": "-88.9266357421875",
        "category": "IL",
        "address": "3002 Gill St",
        "city": "Bloomington",
        "state": "Illinois",
        "postal": "61704",
        "phone": "309-664-7930",
        "featured": "61704"
      },
      {
        "name": "Florida Orthopaedic Institute ",
        "lat": "27.9370384216308",
        "lng": "-82.2831344604492",
        "category": "FL",
        "address": "305 East Brandon Boulevard",
        "city": "Brandon",
        "state": "Florida",
        "postal": "33511",
        "phone": "813-657-8448",
        "featured": "33511"
      },
      {
        "name": "Florida Orthopaedic Institute ",
        "lat": "28.3492736816406",
        "lng": "-82.2000045776367",
        "category": "FL",
        "address": "37223 Medical Drive",
        "city": "Dade City",
        "state": "Florida",
        "postal": "33525",
        "phone": "813-910-3668",
        "featured": "33525"
      },
      {
        "name": "Florida Orthopaedic Institute ",
        "lat": "28.0669384002685",
        "lng": "-82.371955871582",
        "category": "FL",
        "address": "13020 Telecom Parkway North",
        "city": "Temple Terrace",
        "state": "Florida",
        "postal": "33637",
        "phone": "813-978-9700",
        "featured": "33637"
      },
      {
        "name": "Florida Orthopaedic Institute ",
        "lat": "28.5363540649414",
        "lng": "-82.5348815917968",
        "category": "FL",
        "address": "11373 Cortez Boulevard, Suite 303",
        "city": "Brooksville",
        "state": "Florida",
        "postal": "34613",
        "phone": "813-910-3669",
        "featured": "34613"
      },
      {
        "name": "Florida Orthopaedic Institute ",
        "lat": "28.1037425994873",
        "lng": "-82.7390441894531",
        "category": "FL",
        "address": "36413 US Hwy 19 North",
        "city": "Palm Harbor",
        "state": "Florida",
        "postal": "34684",
        "phone": "727-499-9448",
        "featured": "34684"
      },
      {
        "name": "Florida Orthopaedic Institute ",
        "lat": "27.9513028264045",
        "lng": "-82.5055687129497",
        "category": "FL",
        "address": "909 N. Dale Mabry Hwy",
        "city": "Tampa",
        "state": "Florida",
        "postal": "33609",
        "phone": "813-287-9370",
        "featured": "33609"
      },
      {
        "name": "Florida Orthopaedic Institute ",
        "lat": "27.7155857086181",
        "lng": "-82.3367156982421",
        "category": "FL",
        "address": "959 East Del Webb Boulevard",
        "city": "Sun City Center",
        "state": "Florida",
        "postal": "33573",
        "phone": "813-633-5232",
        "featured": "33573"
      },
      {
        "name": "Boron Medical",
        "lat": "26.543616503477",
        "lng": "-81.9149845093488",
        "category": "FL",
        "address": "13611 McGregor Blvd",
        "city": "Fort Myers",
        "state": "Florida",
        "postal": "33919",
        "phone": "239-561-2182",
        "featured": "33919"
      },
      {
        "name": " A and G Spinal Solutions LLC ",
        "lat": "26.555679321289",
        "lng": "-81.8989562988281",
        "category": "FL",
        "address": "8695 College Pkwy",
        "city": "Fort Myers",
        "state": "Florida",
        "postal": "33919",
        "phone": "239-985-4138",
        "featured": "33919"
      },
      {
        "name": "West Coast Brace & Limb",
        "lat": "28.0691081285476",
        "lng": "-82.3947371542453",
        "category": "FL",
        "address": "5311 E Fletcher Ave",
        "city": "Temple Terrace ",
        "state": "Florida",
        "postal": "33617",
        "phone": "813-985-5000",
        "featured": "33617"
      },
      {
        "name": "West Coast Brace & Limb",
        "lat": "27.9823709",
        "lng": "-82.4896849",
        "category": "FL",
        "address": "2727 W Dr.M.L.King Jr. Blvd., Suite 690",
        "city": "Tampa",
        "state": "Florida",
        "postal": "33607",
        "phone": "813-354-0100",
        "featured": "33607"
      },
      {
        "name": "West Coast Brace & Limb",
        "lat": "27.9343338310718",
        "lng": "-82.2926388680934",
        "category": "FL",
        "address": "620 Oakfield Drive",
        "city": "Brandon ",
        "state": "Florida",
        "postal": "33511",
        "phone": "813-684-5525",
        "featured": "33511"
      },
      {
        "name": "West Coast Brace & Limb",
        "lat": "28.0675759166479",
        "lng": "-82.7234029769897",
        "category": "FL",
        "address": "3343 Tampa Road",
        "city": "Palm Harbor ",
        "state": "Florida",
        "postal": "34684",
        "phone": "727-785-0100",
        "featured": "34684"
      },
      {
        "name": "West Coast Brace & Limb",
        "lat": "27.771240234375",
        "lng": "-82.688232421875",
        "category": "FL",
        "address": "4021 Central Ave St",
        "city": "St. Petersburg",
        "state": "Florida",
        "postal": "33713",
        "phone": "727-323-9500",
        "featured": "33713"
      },
      {
        "name": "S. Baker Medical Inc ",
        "lat": "27.8946895599365",
        "lng": "-82.4985809326171",
        "category": "AL",
        "address": "3280 Dauphin St",
        "city": "Mobile",
        "state": "Alabama",
        "postal": "33606",
        "phone": "251-478-9697",
        "featured": "33606"
      },
      {
        "name": "Rehab And Neurological Services",
        "lat": "34.7124977111816",
        "lng": "-86.6095886230468",
        "category": "AL",
        "address": "2700 Triana Blvd SW",
        "city": "Huntsville",
        "state": "Alabama",
        "postal": "35805",
        "phone": "256-885-9708",
        "featured": "35805"
      },
      {
        "name": "North Alabama Rehab and Pain ",
        "lat": "34.5604515075683",
        "lng": "-86.9953918457031",
        "category": "AL",
        "address": "2046 Beltline Rd",
        "city": "Decatur",
        "state": "Alabama",
        "postal": "35601",
        "phone": "256-353-0410",
        "featured": "35601"
      },
      {
        "name": "Biotech Central Fab ",
        "lat": "33.5120129",
        "lng": "-86.7974577",
        "category": "AL",
        "address": "2421 4TH AVE S ",
        "city": "Birmingham",
        "state": "Alabama",
        "postal": "35233",
        "phone": "205-324-7897",
        "featured": "35233"
      },
      {
        "name": " Precision Medical Solutions ",
        "lat": "32.3804875463247",
        "lng": "-86.1883100867271",
        "category": "AL",
        "address": "119 Market Pl",
        "city": "Montgomery",
        "state": "Alabama",
        "postal": "36117",
        "phone": "334-260-3767",
        "featured": "36117"
      },
      {
        "name": "Performance P & O ",
        "lat": "30.4369792938232",
        "lng": "-87.2099075317382",
        "category": "FL",
        "address": "2280 N 9th Ave",
        "city": "Pensacola",
        "state": "Florida",
        "postal": "32503",
        "phone": "850-607-6126",
        "featured": "32503"
      },
      {
        "name": "Breakout Technologies Inc",
        "lat": "44.7235648334026",
        "lng": "-94.4890771061182",
        "category": "NH",
        "address": "905 Hall St.",
        "city": "Manchester",
        "state": "New Hampshire",
        "postal": "3104",
        "phone": "603-289-1009",
        "featured": "03104"
      },
      {
        "name": "Birchwood Medical ",
        "lat": "42.9289245605468",
        "lng": "-73.6302871704101",
        "category": "NY",
        "address": "342 Hemstreet Rd",
        "city": "Schaghticoke",
        "postal": "33606",
        "state": "New York",
        "phone": "518-753-0035",
        "featured": "12154"
      }



   
		]
